{
	"name": "Warsaw",
	"stations": {
		"type": "FeatureCollection",
		"features": [
			{
				"type": "Feature",
				"geometry": {
					"type": "Point",
					"coordinates": [
						20.941524,
						52.205442
					]
				},
				"properties": {
					"id": "warszawa-aleje-jerozolimskie",
					"name": "Warszawa Aleje Jerozolimskie"
				}
			},
			{
				"type": "Feature",
				"geometry": {
					"type": "Point",
					"coordinates": [
						21.04281,
						52.249486
					]
				},
				"properties": {
					"id": "kijowska",
					"name": "Kijowska"
				}
			},
			{
				"type": "Feature",
				"geometry": {
					"type": "Point",
					"coordinates": [
						21.038233,
						52.251737
					]
				},
				"properties": {
					"id": "zabkowska",
					"name": "Ząbkowska"
				}
			},
			{
				"type": "Feature",
				"geometry": {
					"type": "Point",
					"coordinates": [
						21.034826,
						52.25472
					]
				},
				"properties": {
					"id": "dw-wilenski",
					"name": "Dw. Wileński"
				}
			},
			{
				"type": "Feature",
				"geometry": {
					"type": "Point",
					"coordinates": [
						21.028357,
						52.256772
					]
				},
				"properties": {
					"id": "ratuszowa--zoo",
					"name": "Ratuszowa - Zoo"
				}
			},
			{
				"type": "Feature",
				"geometry": {
					"type": "Point",
					"coordinates": [
						21.020786,
						52.263585
					]
				},
				"properties": {
					"id": "rondo-starzynskiego",
					"name": "Rondo Starzyńskiego"
				}
			},
			{
				"type": "Feature",
				"geometry": {
					"type": "Point",
					"coordinates": [
						21.020018,
						52.266715
					]
				},
				"properties": {
					"id": "goledzinow",
					"name": "Golędzinów"
				}
			},
			{
				"type": "Feature",
				"geometry": {
					"type": "Point",
					"coordinates": [
						21.017024,
						52.270276
					]
				},
				"properties": {
					"id": "pimot",
					"name": "PIMOT"
				}
			},
			{
				"type": "Feature",
				"geometry": {
					"type": "Point",
					"coordinates": [
						21.014409,
						52.273793
					]
				},
				"properties": {
					"id": "batalionu-platerowek",
					"name": "Batalionu Platerówek"
				}
			},
			{
				"type": "Feature",
				"geometry": {
					"type": "Point",
					"coordinates": [
						21.01174,
						52.278172
					]
				},
				"properties": {
					"id": "sliwice",
					"name": "Śliwice"
				}
			},
			{
				"type": "Feature",
				"geometry": {
					"type": "Point",
					"coordinates": [
						21.009395,
						52.281981
					]
				},
				"properties": {
					"id": "budzinskiejtylickiej",
					"name": "Budzińskiej-Tylickiej"
				}
			},
			{
				"type": "Feature",
				"geometry": {
					"type": "Point",
					"coordinates": [
						21.005963,
						52.286939
					]
				},
				"properties": {
					"id": "dyrekcja-fso",
					"name": "Dyrekcja FSO"
				}
			},
			{
				"type": "Feature",
				"geometry": {
					"type": "Point",
					"coordinates": [
						21.002445,
						52.290283
					]
				},
				"properties": {
					"id": "zeran-fso",
					"name": "Żerań FSO"
				}
			},
			{
				"type": "Feature",
				"geometry": {
					"type": "Point",
					"coordinates": [
						21.050371,
						52.252882
					]
				},
				"properties": {
					"id": "dw-wschodni-kijowska",
					"name": "Dw. Wschodni (Kijowska)"
				}
			},
			{
				"type": "Feature",
				"geometry": {
					"type": "Point",
					"coordinates": [
						21.052711,
						52.256307
					]
				},
				"properties": {
					"id": "zajezdnia-praga",
					"name": "Zajezdnia Praga"
				}
			},
			{
				"type": "Feature",
				"geometry": {
					"type": "Point",
					"coordinates": [
						21.05567,
						52.257188
					]
				},
				"properties": {
					"id": "wojnicka",
					"name": "Wojnicka"
				}
			},
			{
				"type": "Feature",
				"geometry": {
					"type": "Point",
					"coordinates": [
						21.059396,
						52.258241
					]
				},
				"properties": {
					"id": "kaweczynska--bazylika",
					"name": "Kawęczyńska - Bazylika"
				}
			},
			{
				"type": "Feature",
				"geometry": {
					"type": "Point",
					"coordinates": [
						21.034387,
						52.257795
					]
				},
				"properties": {
					"id": "inzynierska",
					"name": "Inżynierska"
				}
			},
			{
				"type": "Feature",
				"geometry": {
					"type": "Point",
					"coordinates": [
						21.039482,
						52.259523
					]
				},
				"properties": {
					"id": "konopacka",
					"name": "Konopacka"
				}
			},
			{
				"type": "Feature",
				"geometry": {
					"type": "Point",
					"coordinates": [
						21.042378,
						52.259108
					]
				},
				"properties": {
					"id": "srodkowa",
					"name": "Środkowa"
				}
			},
			{
				"type": "Feature",
				"geometry": {
					"type": "Point",
					"coordinates": [
						21.043025,
						52.260089
					]
				},
				"properties": {
					"id": "czynszowa",
					"name": "Czynszowa"
				}
			},
			{
				"type": "Feature",
				"geometry": {
					"type": "Point",
					"coordinates": [
						21.038371,
						52.263994
					]
				},
				"properties": {
					"id": "brodnowska",
					"name": "Bródnowska"
				}
			},
			{
				"type": "Feature",
				"geometry": {
					"type": "Point",
					"coordinates": [
						21.031091,
						52.266956
					]
				},
				"properties": {
					"id": "namyslowska",
					"name": "Namysłowska"
				}
			},
			{
				"type": "Feature",
				"geometry": {
					"type": "Point",
					"coordinates": [
						21.036815,
						52.269265
					]
				},
				"properties": {
					"id": "rondo-zaba",
					"name": "Rondo Żaba"
				}
			},
			{
				"type": "Feature",
				"geometry": {
					"type": "Point",
					"coordinates": [
						21.032016,
						52.273539
					]
				},
				"properties": {
					"id": "staniewicka",
					"name": "Staniewicka"
				}
			},
			{
				"type": "Feature",
				"geometry": {
					"type": "Point",
					"coordinates": [
						21.027632,
						52.278317
					]
				},
				"properties": {
					"id": "pozarowa",
					"name": "Pożarowa"
				}
			},
			{
				"type": "Feature",
				"geometry": {
					"type": "Point",
					"coordinates": [
						21.026339,
						52.280997
					]
				},
				"properties": {
					"id": "budowlana",
					"name": "Budowlana"
				}
			},
			{
				"type": "Feature",
				"geometry": {
					"type": "Point",
					"coordinates": [
						21.032903,
						52.284937
					]
				},
				"properties": {
					"id": "julianowska",
					"name": "Julianowska"
				}
			},
			{
				"type": "Feature",
				"geometry": {
					"type": "Point",
					"coordinates": [
						21.030584,
						52.288288
					]
				},
				"properties": {
					"id": "rembielinska",
					"name": "Rembielińska"
				}
			},
			{
				"type": "Feature",
				"geometry": {
					"type": "Point",
					"coordinates": [
						21.029357,
						52.290124
					]
				},
				"properties": {
					"id": "poborzanska",
					"name": "Poborzańska"
				}
			},
			{
				"type": "Feature",
				"geometry": {
					"type": "Point",
					"coordinates": [
						21.024522,
						52.296868
					]
				},
				"properties": {
					"id": "torunska",
					"name": "Toruńska"
				}
			},
			{
				"type": "Feature",
				"geometry": {
					"type": "Point",
					"coordinates": [
						21.021709,
						52.298662
					]
				},
				"properties": {
					"id": "annopol",
					"name": "Annopol"
				}
			},
			{
				"type": "Feature",
				"geometry": {
					"type": "Point",
					"coordinates": [
						21.021257,
						52.30123
					]
				},
				"properties": {
					"id": "inowlodzka",
					"name": "Inowłodzka"
				}
			},
			{
				"type": "Feature",
				"geometry": {
					"type": "Point",
					"coordinates": [
						21.018142,
						52.305328
					]
				},
				"properties": {
					"id": "odlewnicza",
					"name": "Odlewnicza"
				}
			},
			{
				"type": "Feature",
				"geometry": {
					"type": "Point",
					"coordinates": [
						21.015496,
						52.308869
					]
				},
				"properties": {
					"id": "faradaya",
					"name": "Faradaya"
				}
			},
			{
				"type": "Feature",
				"geometry": {
					"type": "Point",
					"coordinates": [
						21.012346,
						52.310973
					]
				},
				"properties": {
					"id": "zeran-wschodni",
					"name": "Żerań Wschodni"
				}
			},
			{
				"type": "Feature",
				"geometry": {
					"type": "Point",
					"coordinates": [
						20.965915,
						52.313251
					]
				},
				"properties": {
					"id": "stare-swidry",
					"name": "Stare Świdry"
				}
			},
			{
				"type": "Feature",
				"geometry": {
					"type": "Point",
					"coordinates": [
						21.0514,
						52.269394
					]
				},
				"properties": {
					"id": "targowek-mieszkaniowy",
					"name": "Targówek Mieszkaniowy"
				}
			},
			{
				"type": "Feature",
				"geometry": {
					"type": "Point",
					"coordinates": [
						21.055673,
						52.275289
					]
				},
				"properties": {
					"id": "trocka",
					"name": "Trocka"
				}
			},
			{
				"type": "Feature",
				"geometry": {
					"type": "Point",
					"coordinates": [
						21.062139,
						52.283735
					]
				},
				"properties": {
					"id": "zacisze",
					"name": "Zacisze"
				}
			},
			{
				"type": "Feature",
				"geometry": {
					"type": "Point",
					"coordinates": [
						21.048633,
						52.292003
					]
				},
				"properties": {
					"id": "kondratowicza",
					"name": "Kondratowicza"
				}
			},
			{
				"type": "Feature",
				"geometry": {
					"type": "Point",
					"coordinates": [
						21.029922,
						52.252677
					]
				},
				"properties": {
					"id": "park-praski",
					"name": "Park Praski"
				}
			},
			{
				"type": "Feature",
				"geometry": {
					"type": "Point",
					"coordinates": [
						21.013547,
						52.26196
					]
				},
				"properties": {
					"id": "wybrzeze-helskie",
					"name": "Wybrzeże Helskie"
				}
			},
			{
				"type": "Feature",
				"geometry": {
					"type": "Point",
					"coordinates": [
						20.944302,
						52.32265
					]
				},
				"properties": {
					"id": "mehoffera",
					"name": "Mehoffera"
				}
			},
			{
				"type": "Feature",
				"geometry": {
					"type": "Point",
					"coordinates": [
						21.042906,
						52.24683
					]
				},
				"properties": {
					"id": "stadion-narodowy",
					"name": "Stadion Narodowy"
				}
			},
			{
				"type": "Feature",
				"geometry": {
					"type": "Point",
					"coordinates": [
						20.941711,
						52.332383
					]
				},
				"properties": {
					"id": "nowodwory",
					"name": "Nowodwory"
				}
			},
			{
				"type": "Feature",
				"geometry": {
					"type": "Point",
					"coordinates": [
						20.960673,
						52.316906
					]
				},
				"properties": {
					"id": "mysliborska",
					"name": "Myśliborska"
				}
			},
			{
				"type": "Feature",
				"geometry": {
					"type": "Point",
					"coordinates": [
						20.952427,
						52.31866
					]
				},
				"properties": {
					"id": "tarchomin",
					"name": "Tarchomin"
				}
			},
			{
				"type": "Feature",
				"geometry": {
					"type": "Point",
					"coordinates": [
						20.940986,
						52.327498
					]
				},
				"properties": {
					"id": "stefanika",
					"name": "Stefanika"
				}
			},
			{
				"type": "Feature",
				"geometry": {
					"type": "Point",
					"coordinates": [
						20.944275,
						52.339056
					]
				},
				"properties": {
					"id": "grzymalitow",
					"name": "Grzymalitów"
				}
			},
			{
				"type": "Feature",
				"geometry": {
					"type": "Point",
					"coordinates": [
						21.032446,
						52.257076
					]
				},
				"properties": {
					"id": "ratuszowa",
					"name": "Ratuszowa"
				}
			},
			{
				"type": "Feature",
				"geometry": {
					"type": "Point",
					"coordinates": [
						20.959547,
						52.310787
					]
				},
				"properties": {
					"id": "swiderska",
					"name": "Świderska"
				}
			},
			{
				"type": "Feature",
				"geometry": {
					"type": "Point",
					"coordinates": [
						20.942939,
						52.323607
					]
				},
				"properties": {
					"id": "tarchomin-koscielny",
					"name": "Tarchomin Kościelny"
				}
			},
			{
				"type": "Feature",
				"geometry": {
					"type": "Point",
					"coordinates": [
						20.965995,
						52.316107
					]
				},
				"properties": {
					"id": "sreniawitow",
					"name": "Śreniawitów"
				}
			},
			{
				"type": "Feature",
				"geometry": {
					"type": "Point",
					"coordinates": [
						21.045297,
						52.263394
					]
				},
				"properties": {
					"id": "szwedzka",
					"name": "Szwedzka"
				}
			},
			{
				"type": "Feature",
				"geometry": {
					"type": "Point",
					"coordinates": [
						20.948093,
						52.340777
					]
				},
				"properties": {
					"id": "winnica",
					"name": "Winnica"
				}
			},
			{
				"type": "Feature",
				"geometry": {
					"type": "Point",
					"coordinates": [
						21.047246,
						52.247842
					]
				},
				"properties": {
					"id": "al-zieleniecka",
					"name": "Al. Zieleniecka"
				}
			},
			{
				"type": "Feature",
				"geometry": {
					"type": "Point",
					"coordinates": [
						21.052911,
						52.247292
					]
				},
				"properties": {
					"id": "lubelska",
					"name": "Lubelska"
				}
			},
			{
				"type": "Feature",
				"geometry": {
					"type": "Point",
					"coordinates": [
						21.058501,
						52.246902
					]
				},
				"properties": {
					"id": "bliska",
					"name": "Bliska"
				}
			},
			{
				"type": "Feature",
				"geometry": {
					"type": "Point",
					"coordinates": [
						21.064081,
						52.246521
					]
				},
				"properties": {
					"id": "goclawska",
					"name": "Gocławska"
				}
			},
			{
				"type": "Feature",
				"geometry": {
					"type": "Point",
					"coordinates": [
						21.069537,
						52.246182
					]
				},
				"properties": {
					"id": "pragapld--ratusz",
					"name": "Praga-Płd. - Ratusz"
				}
			},
			{
				"type": "Feature",
				"geometry": {
					"type": "Point",
					"coordinates": [
						21.075621,
						52.245836
					]
				},
				"properties": {
					"id": "miedzyborska",
					"name": "Międzyborska"
				}
			},
			{
				"type": "Feature",
				"geometry": {
					"type": "Point",
					"coordinates": [
						21.079673,
						52.245584
					]
				},
				"properties": {
					"id": "kickiego",
					"name": "Kickiego"
				}
			},
			{
				"type": "Feature",
				"geometry": {
					"type": "Point",
					"coordinates": [
						21.084658,
						52.244946
					]
				},
				"properties": {
					"id": "wiatraczna",
					"name": "Wiatraczna"
				}
			},
			{
				"type": "Feature",
				"geometry": {
					"type": "Point",
					"coordinates": [
						21.091553,
						52.244745
					]
				},
				"properties": {
					"id": "czapelska",
					"name": "Czapelska"
				}
			},
			{
				"type": "Feature",
				"geometry": {
					"type": "Point",
					"coordinates": [
						21.095315,
						52.243946
					]
				},
				"properties": {
					"id": "wspolna-droga",
					"name": "Wspólna Droga"
				}
			},
			{
				"type": "Feature",
				"geometry": {
					"type": "Point",
					"coordinates": [
						21.102228,
						52.242481
					]
				},
				"properties": {
					"id": "pl-szembeka",
					"name": "Pl. Szembeka"
				}
			},
			{
				"type": "Feature",
				"geometry": {
					"type": "Point",
					"coordinates": [
						21.107631,
						52.24133
					]
				},
				"properties": {
					"id": "zolkiewskiego",
					"name": "Żółkiewskiego"
				}
			},
			{
				"type": "Feature",
				"geometry": {
					"type": "Point",
					"coordinates": [
						21.114192,
						52.23995
					]
				},
				"properties": {
					"id": "kwatery-glownej",
					"name": "Kwatery Głównej"
				}
			},
			{
				"type": "Feature",
				"geometry": {
					"type": "Point",
					"coordinates": [
						21.118788,
						52.238102
					]
				},
				"properties": {
					"id": "goclawek",
					"name": "Gocławek"
				}
			},
			{
				"type": "Feature",
				"geometry": {
					"type": "Point",
					"coordinates": [
						21.05103,
						52.238363
					]
				},
				"properties": {
					"id": "rondo-waszyngtona",
					"name": "Rondo Waszyngtona"
				}
			},
			{
				"type": "Feature",
				"geometry": {
					"type": "Point",
					"coordinates": [
						21.062863,
						52.24041
					]
				},
				"properties": {
					"id": "park-skaryszewski",
					"name": "Park Skaryszewski"
				}
			},
			{
				"type": "Feature",
				"geometry": {
					"type": "Point",
					"coordinates": [
						21.071546,
						52.242189
					]
				},
				"properties": {
					"id": "kinowa",
					"name": "Kinowa"
				}
			},
			{
				"type": "Feature",
				"geometry": {
					"type": "Point",
					"coordinates": [
						21.078702,
						52.243649
					]
				},
				"properties": {
					"id": "grenadierow",
					"name": "Grenadierów"
				}
			},
			{
				"type": "Feature",
				"geometry": {
					"type": "Point",
					"coordinates": [
						21.055595,
						52.238912
					]
				},
				"properties": {
					"id": "berezynska",
					"name": "Berezyńska"
				}
			},
			{
				"type": "Feature",
				"geometry": {
					"type": "Point",
					"coordinates": [
						21.02112,
						52.214355
					]
				},
				"properties": {
					"id": "pl-unii-lubelskiej",
					"name": "Pl. Unii Lubelskiej"
				}
			},
			{
				"type": "Feature",
				"geometry": {
					"type": "Point",
					"coordinates": [
						21.021371,
						52.209254
					]
				},
				"properties": {
					"id": "rakowiecka",
					"name": "Rakowiecka"
				}
			},
			{
				"type": "Feature",
				"geometry": {
					"type": "Point",
					"coordinates": [
						21.022916,
						52.205029
					]
				},
				"properties": {
					"id": "dworkowa",
					"name": "Dworkowa"
				}
			},
			{
				"type": "Feature",
				"geometry": {
					"type": "Point",
					"coordinates": [
						21.02343,
						52.20232
					]
				},
				"properties": {
					"id": "morskie-oko",
					"name": "Morskie Oko"
				}
			},
			{
				"type": "Feature",
				"geometry": {
					"type": "Point",
					"coordinates": [
						21.024138,
						52.196755
					]
				},
				"properties": {
					"id": "park-dreszera",
					"name": "Park Dreszera"
				}
			},
			{
				"type": "Feature",
				"geometry": {
					"type": "Point",
					"coordinates": [
						21.024315,
						52.194186
					]
				},
				"properties": {
					"id": "malczewskiego",
					"name": "Malczewskiego"
				}
			},
			{
				"type": "Feature",
				"geometry": {
					"type": "Point",
					"coordinates": [
						21.024475,
						52.189803
					]
				},
				"properties": {
					"id": "krolikarnia",
					"name": "Królikarnia"
				}
			},
			{
				"type": "Feature",
				"geometry": {
					"type": "Point",
					"coordinates": [
						21.024663,
						52.186366
					]
				},
				"properties": {
					"id": "bukowinska",
					"name": "Bukowińska"
				}
			},
			{
				"type": "Feature",
				"geometry": {
					"type": "Point",
					"coordinates": [
						21.022706,
						52.181384
					]
				},
				"properties": {
					"id": "metro-wilanowska",
					"name": "Metro Wilanowska"
				}
			},
			{
				"type": "Feature",
				"geometry": {
					"type": "Point",
					"coordinates": [
						21.020893,
						52.176438
					]
				},
				"properties": {
					"id": "niedzwiedzia",
					"name": "Niedźwiedzia"
				}
			},
			{
				"type": "Feature",
				"geometry": {
					"type": "Point",
					"coordinates": [
						21.01956,
						52.172835
					]
				},
				"properties": {
					"id": "al-lotnikow",
					"name": "Al. Lotników"
				}
			},
			{
				"type": "Feature",
				"geometry": {
					"type": "Point",
					"coordinates": [
						21.016389,
						52.168124
					]
				},
				"properties": {
					"id": "wyscigi",
					"name": "Wyścigi"
				}
			},
			{
				"type": "Feature",
				"geometry": {
					"type": "Point",
					"coordinates": [
						21.030867,
						52.206865
					]
				},
				"properties": {
					"id": "spacerowa",
					"name": "Spacerowa"
				}
			},
			{
				"type": "Feature",
				"geometry": {
					"type": "Point",
					"coordinates": [
						21.035302,
						52.201842
					]
				},
				"properties": {
					"id": "dolna",
					"name": "Dolna"
				}
			},
			{
				"type": "Feature",
				"geometry": {
					"type": "Point",
					"coordinates": [
						21.039793,
						52.196964
					]
				},
				"properties": {
					"id": "kostrzewskiego",
					"name": "Kostrzewskiego"
				}
			},
			{
				"type": "Feature",
				"geometry": {
					"type": "Point",
					"coordinates": [
						21.048865,
						52.188349
					]
				},
				"properties": {
					"id": "mangalia",
					"name": "Mangalia"
				}
			},
			{
				"type": "Feature",
				"geometry": {
					"type": "Point",
					"coordinates": [
						21.051733,
						52.185623
					]
				},
				"properties": {
					"id": "czarnomorska",
					"name": "Czarnomorska"
				}
			},
			{
				"type": "Feature",
				"geometry": {
					"type": "Point",
					"coordinates": [
						21.05576,
						52.181721
					]
				},
				"properties": {
					"id": "sw-bonifacego",
					"name": "Św. Bonifacego"
				}
			},
			{
				"type": "Feature",
				"geometry": {
					"type": "Point",
					"coordinates": [
						21.062103,
						52.175791
					]
				},
				"properties": {
					"id": "naleczowska",
					"name": "Nałęczowska"
				}
			},
			{
				"type": "Feature",
				"geometry": {
					"type": "Point",
					"coordinates": [
						21.06767,
						52.170464
					]
				},
				"properties": {
					"id": "sobieskiego",
					"name": "Sobieskiego"
				}
			},
			{
				"type": "Feature",
				"geometry": {
					"type": "Point",
					"coordinates": [
						21.047727,
						52.207009
					]
				},
				"properties": {
					"id": "sielce",
					"name": "Sielce"
				}
			},
			{
				"type": "Feature",
				"geometry": {
					"type": "Point",
					"coordinates": [
						21.048693,
						52.177954
					]
				},
				"properties": {
					"id": "stegny",
					"name": "Stegny"
				}
			},
			{
				"type": "Feature",
				"geometry": {
					"type": "Point",
					"coordinates": [
						21.017132,
						52.189028
					]
				},
				"properties": {
					"id": "metro-wierzbno",
					"name": "Metro Wierzbno"
				}
			},
			{
				"type": "Feature",
				"geometry": {
					"type": "Point",
					"coordinates": [
						21.0117,
						52.18889
					]
				},
				"properties": {
					"id": "telewizja-polska",
					"name": "Telewizja Polska"
				}
			},
			{
				"type": "Feature",
				"geometry": {
					"type": "Point",
					"coordinates": [
						21.007446,
						52.188847
					]
				},
				"properties": {
					"id": "samochodowa",
					"name": "Samochodowa"
				}
			},
			{
				"type": "Feature",
				"geometry": {
					"type": "Point",
					"coordinates": [
						21.00387,
						52.20683
					]
				},
				"properties": {
					"id": "kielecka",
					"name": "Kielecka"
				}
			},
			{
				"type": "Feature",
				"geometry": {
					"type": "Point",
					"coordinates": [
						21.027733,
						52.161946
					]
				},
				"properties": {
					"id": "ursynow",
					"name": "Ursynów"
				}
			},
			{
				"type": "Feature",
				"geometry": {
					"type": "Point",
					"coordinates": [
						21.034576,
						52.156158
					]
				},
				"properties": {
					"id": "stoklosy",
					"name": "Stokłosy"
				}
			},
			{
				"type": "Feature",
				"geometry": {
					"type": "Point",
					"coordinates": [
						21.008131,
						52.207647
					]
				},
				"properties": {
					"id": "metro-pole-mokotowskie",
					"name": "Metro Pole Mokotowskie"
				}
			},
			{
				"type": "Feature",
				"geometry": {
					"type": "Point",
					"coordinates": [
						21.012152,
						52.199016
					]
				},
				"properties": {
					"id": "raclawicka",
					"name": "Racławicka"
				}
			},
			{
				"type": "Feature",
				"geometry": {
					"type": "Point",
					"coordinates": [
						21.000301,
						52.202074
					]
				},
				"properties": {
					"id": "kulskiego",
					"name": "Kulskiego"
				}
			},
			{
				"type": "Feature",
				"geometry": {
					"type": "Point",
					"coordinates": [
						21.00121,
						52.198908
					]
				},
				"properties": {
					"id": "woloska--szpital",
					"name": "Wołoska - Szpital"
				}
			},
			{
				"type": "Feature",
				"geometry": {
					"type": "Point",
					"coordinates": [
						21.001808,
						52.195579
					]
				},
				"properties": {
					"id": "woloska",
					"name": "Wołoska"
				}
			},
			{
				"type": "Feature",
				"geometry": {
					"type": "Point",
					"coordinates": [
						21.002031,
						52.188769
					]
				},
				"properties": {
					"id": "woronicza",
					"name": "Woronicza"
				}
			},
			{
				"type": "Feature",
				"geometry": {
					"type": "Point",
					"coordinates": [
						21.00211,
						52.18606
					]
				},
				"properties": {
					"id": "konstruktorska",
					"name": "Konstruktorska"
				}
			},
			{
				"type": "Feature",
				"geometry": {
					"type": "Point",
					"coordinates": [
						21.002194,
						52.182767
					]
				},
				"properties": {
					"id": "domaniewska",
					"name": "Domaniewska"
				}
			},
			{
				"type": "Feature",
				"geometry": {
					"type": "Point",
					"coordinates": [
						21.001068,
						52.178674
					]
				},
				"properties": {
					"id": "rondo-unii-europejskiej",
					"name": "Rondo Unii Europejskiej"
				}
			},
			{
				"type": "Feature",
				"geometry": {
					"type": "Point",
					"coordinates": [
						20.997963,
						52.179333
					]
				},
				"properties": {
					"id": "postepu",
					"name": "Postępu"
				}
			},
			{
				"type": "Feature",
				"geometry": {
					"type": "Point",
					"coordinates": [
						20.993871,
						52.180228
					]
				},
				"properties": {
					"id": "wynalazek",
					"name": "Wynalazek"
				}
			},
			{
				"type": "Feature",
				"geometry": {
					"type": "Point",
					"coordinates": [
						20.988399,
						52.181614
					]
				},
				"properties": {
					"id": "pkp-sluzewiec",
					"name": "PKP Służewiec"
				}
			},
			{
				"type": "Feature",
				"geometry": {
					"type": "Point",
					"coordinates": [
						21.026227,
						52.173412
					]
				},
				"properties": {
					"id": "sluzew",
					"name": "Służew"
				}
			},
			{
				"type": "Feature",
				"geometry": {
					"type": "Point",
					"coordinates": [
						21.04537,
						52.149715
					]
				},
				"properties": {
					"id": "imielin",
					"name": "Imielin"
				}
			},
			{
				"type": "Feature",
				"geometry": {
					"type": "Point",
					"coordinates": [
						21.056444,
						52.141093
					]
				},
				"properties": {
					"id": "natolin",
					"name": "Natolin"
				}
			},
			{
				"type": "Feature",
				"geometry": {
					"type": "Point",
					"coordinates": [
						21.065056,
						52.132093
					]
				},
				"properties": {
					"id": "kabaty",
					"name": "Kabaty"
				}
			},
			{
				"type": "Feature",
				"geometry": {
					"type": "Point",
					"coordinates": [
						20.999375,
						52.205404
					]
				},
				"properties": {
					"id": "rakowiecka--sanktuarium",
					"name": "Rakowiecka - Sanktuarium"
				}
			},
			{
				"type": "Feature",
				"geometry": {
					"type": "Point",
					"coordinates": [
						21.069829,
						52.164788
					]
				},
				"properties": {
					"id": "os-krolewska",
					"name": "Oś Królewska"
				}
			},
			{
				"type": "Feature",
				"geometry": {
					"type": "Point",
					"coordinates": [
						21.072309,
						52.160241
					]
				},
				"properties": {
					"id": "swiatynia-opatrznosci-bozej",
					"name": "Świątynia Opatrzności Bożej"
				}
			},
			{
				"type": "Feature",
				"geometry": {
					"type": "Point",
					"coordinates": [
						21.076346,
						52.157108
					]
				},
				"properties": {
					"id": "miasteczko-wilanow",
					"name": "Miasteczko Wilanów"
				}
			},
			{
				"type": "Feature",
				"geometry": {
					"type": "Point",
					"coordinates": [
						21.020829,
						52.210823
					]
				},
				"properties": {
					"id": "goworka",
					"name": "Goworka"
				}
			},
			{
				"type": "Feature",
				"geometry": {
					"type": "Point",
					"coordinates": [
						21.039049,
						52.206663
					]
				},
				"properties": {
					"id": "sielecka",
					"name": "Sielecka"
				}
			},
			{
				"type": "Feature",
				"geometry": {
					"type": "Point",
					"coordinates": [
						21.044589,
						52.192371
					]
				},
				"properties": {
					"id": "idzikowskiego",
					"name": "Idzikowskiego"
				}
			},
			{
				"type": "Feature",
				"geometry": {
					"type": "Point",
					"coordinates": [
						20.989143,
						52.224824
					]
				},
				"properties": {
					"id": "pl-zawiszy",
					"name": "Pl. Zawiszy"
				}
			},
			{
				"type": "Feature",
				"geometry": {
					"type": "Point",
					"coordinates": [
						20.986792,
						52.222749
					]
				},
				"properties": {
					"id": "ochota--ratusz",
					"name": "Ochota - Ratusz"
				}
			},
			{
				"type": "Feature",
				"geometry": {
					"type": "Point",
					"coordinates": [
						20.983812,
						52.218927
					]
				},
				"properties": {
					"id": "pl-narutowicza",
					"name": "Pl. Narutowicza"
				}
			},
			{
				"type": "Feature",
				"geometry": {
					"type": "Point",
					"coordinates": [
						20.979454,
						52.21441
					]
				},
				"properties": {
					"id": "ochteatr",
					"name": "Och-Teatr"
				}
			},
			{
				"type": "Feature",
				"geometry": {
					"type": "Point",
					"coordinates": [
						20.976542,
						52.211076
					]
				},
				"properties": {
					"id": "bitwy-warszawskiej-1920-r",
					"name": "Bitwy Warszawskiej 1920 r."
				}
			},
			{
				"type": "Feature",
				"geometry": {
					"type": "Point",
					"coordinates": [
						20.971968,
						52.205761
					]
				},
				"properties": {
					"id": "dickensa",
					"name": "Dickensa"
				}
			},
			{
				"type": "Feature",
				"geometry": {
					"type": "Point",
					"coordinates": [
						20.969159,
						52.202608
					]
				},
				"properties": {
					"id": "korotynskiego",
					"name": "Korotyńskiego"
				}
			},
			{
				"type": "Feature",
				"geometry": {
					"type": "Point",
					"coordinates": [
						20.964398,
						52.197218
					]
				},
				"properties": {
					"id": "pkp-rakowiec",
					"name": "PKP Rakowiec"
				}
			},
			{
				"type": "Feature",
				"geometry": {
					"type": "Point",
					"coordinates": [
						20.960751,
						52.193135
					]
				},
				"properties": {
					"id": "wlochy--ratusz",
					"name": "Włochy - Ratusz"
				}
			},
			{
				"type": "Feature",
				"geometry": {
					"type": "Point",
					"coordinates": [
						20.958241,
						52.190173
					]
				},
				"properties": {
					"id": "hynka",
					"name": "Hynka"
				}
			},
			{
				"type": "Feature",
				"geometry": {
					"type": "Point",
					"coordinates": [
						20.954669,
						52.186243
					]
				},
				"properties": {
					"id": "krakowiakow",
					"name": "Krakowiaków"
				}
			},
			{
				"type": "Feature",
				"geometry": {
					"type": "Point",
					"coordinates": [
						20.951666,
						52.183361
					]
				},
				"properties": {
					"id": "lipowczana",
					"name": "Lipowczana"
				}
			},
			{
				"type": "Feature",
				"geometry": {
					"type": "Point",
					"coordinates": [
						20.947305,
						52.17934
					]
				},
				"properties": {
					"id": "instytut-lotnictwa",
					"name": "Instytut Lotnictwa"
				}
			},
			{
				"type": "Feature",
				"geometry": {
					"type": "Point",
					"coordinates": [
						20.944098,
						52.175797
					]
				},
				"properties": {
					"id": "pr-al-krakowska",
					"name": "P+R Al. Krakowska"
				}
			},
			{
				"type": "Feature",
				"geometry": {
					"type": "Point",
					"coordinates": [
						20.989724,
						52.219178
					]
				},
				"properties": {
					"id": "raszynska",
					"name": "Raszyńska"
				}
			},
			{
				"type": "Feature",
				"geometry": {
					"type": "Point",
					"coordinates": [
						20.995812,
						52.226426
					]
				},
				"properties": {
					"id": "pl-starynkiewicza",
					"name": "Pl. Starynkiewicza"
				}
			},
			{
				"type": "Feature",
				"geometry": {
					"type": "Point",
					"coordinates": [
						20.981923,
						52.209988
					]
				},
				"properties": {
					"id": "banacha",
					"name": "Banacha"
				}
			},
			{
				"type": "Feature",
				"geometry": {
					"type": "Point",
					"coordinates": [
						20.981131,
						52.216305
					]
				},
				"properties": {
					"id": "wawelska",
					"name": "Wawelska"
				}
			},
			{
				"type": "Feature",
				"geometry": {
					"type": "Point",
					"coordinates": [
						20.974554,
						52.208711
					]
				},
				"properties": {
					"id": "hale-banacha",
					"name": "Hale Banacha"
				}
			},
			{
				"type": "Feature",
				"geometry": {
					"type": "Point",
					"coordinates": [
						20.998949,
						52.218952
					]
				},
				"properties": {
					"id": "nik",
					"name": "NIK"
				}
			},
			{
				"type": "Feature",
				"geometry": {
					"type": "Point",
					"coordinates": [
						20.922781,
						52.221957
					]
				},
				"properties": {
					"id": "pr-polczynska",
					"name": "P+R Połczyńska"
				}
			},
			{
				"type": "Feature",
				"geometry": {
					"type": "Point",
					"coordinates": [
						20.986261,
						52.239484
					]
				},
				"properties": {
					"id": "wola--ratusz",
					"name": "Wola - Ratusz"
				}
			},
			{
				"type": "Feature",
				"geometry": {
					"type": "Point",
					"coordinates": [
						20.980186,
						52.237025
					]
				},
				"properties": {
					"id": "okopowa",
					"name": "Okopowa"
				}
			},
			{
				"type": "Feature",
				"geometry": {
					"type": "Point",
					"coordinates": [
						20.97388,
						52.235196
					]
				},
				"properties": {
					"id": "zajezdnia-wola",
					"name": "Zajezdnia Wola"
				}
			},
			{
				"type": "Feature",
				"geometry": {
					"type": "Point",
					"coordinates": [
						20.966824,
						52.233658
					]
				},
				"properties": {
					"id": "metro-plocka",
					"name": "Metro Płocka"
				}
			},
			{
				"type": "Feature",
				"geometry": {
					"type": "Point",
					"coordinates": [
						20.960853,
						52.232457
					]
				},
				"properties": {
					"id": "sokolowska",
					"name": "Sokołowska"
				}
			},
			{
				"type": "Feature",
				"geometry": {
					"type": "Point",
					"coordinates": [
						20.955208,
						52.230807
					]
				},
				"properties": {
					"id": "pkp-wola-wolska",
					"name": "PKP Wola (Wolska)"
				}
			},
			{
				"type": "Feature",
				"geometry": {
					"type": "Point",
					"coordinates": [
						20.951534,
						52.229637
					]
				},
				"properties": {
					"id": "elekcyjna",
					"name": "Elekcyjna"
				}
			},
			{
				"type": "Feature",
				"geometry": {
					"type": "Point",
					"coordinates": [
						20.941436,
						52.226313
					]
				},
				"properties": {
					"id": "reduta-wolska",
					"name": "Reduta Wolska"
				}
			},
			{
				"type": "Feature",
				"geometry": {
					"type": "Point",
					"coordinates": [
						20.936879,
						52.225516
					]
				},
				"properties": {
					"id": "sowinskiego",
					"name": "Sowińskiego"
				}
			},
			{
				"type": "Feature",
				"geometry": {
					"type": "Point",
					"coordinates": [
						20.931387,
						52.224646
					]
				},
				"properties": {
					"id": "cm-wolski",
					"name": "Cm. Wolski"
				}
			},
			{
				"type": "Feature",
				"geometry": {
					"type": "Point",
					"coordinates": [
						20.92909,
						52.223438
					]
				},
				"properties": {
					"id": "fort-wola",
					"name": "Fort Wola"
				}
			},
			{
				"type": "Feature",
				"geometry": {
					"type": "Point",
					"coordinates": [
						20.972002,
						52.237074
					]
				},
				"properties": {
					"id": "mlynarska",
					"name": "Młynarska"
				}
			},
			{
				"type": "Feature",
				"geometry": {
					"type": "Point",
					"coordinates": [
						20.943747,
						52.239124
					]
				},
				"properties": {
					"id": "ksiecia-janusza",
					"name": "Księcia Janusza"
				}
			},
			{
				"type": "Feature",
				"geometry": {
					"type": "Point",
					"coordinates": [
						20.930007,
						52.240451
					]
				},
				"properties": {
					"id": "ulrychow",
					"name": "Ulrychów"
				}
			},
			{
				"type": "Feature",
				"geometry": {
					"type": "Point",
					"coordinates": [
						20.905387,
						52.238994
					]
				},
				"properties": {
					"id": "klemensiewicza",
					"name": "Klemensiewicza"
				}
			},
			{
				"type": "Feature",
				"geometry": {
					"type": "Point",
					"coordinates": [
						20.982133,
						52.233269
					]
				},
				"properties": {
					"id": "muzeum-powstania-warszawskiego",
					"name": "Muzeum Powstania Warszawskiego"
				}
			},
			{
				"type": "Feature",
				"geometry": {
					"type": "Point",
					"coordinates": [
						20.96895,
						52.231367
					]
				},
				"properties": {
					"id": "rogalinska",
					"name": "Rogalińska"
				}
			},
			{
				"type": "Feature",
				"geometry": {
					"type": "Point",
					"coordinates": [
						20.993328,
						52.232092
					]
				},
				"properties": {
					"id": "norblin",
					"name": "Norblin"
				}
			},
			{
				"type": "Feature",
				"geometry": {
					"type": "Point",
					"coordinates": [
						20.984449,
						52.230328
					]
				},
				"properties": {
					"id": "rondo-daszynskiego-tram",
					"name": "Rondo Daszyńskiego"
				}
			},
			{
				"type": "Feature",
				"geometry": {
					"type": "Point",
					"coordinates": [
						20.979268,
						52.229445
					]
				},
				"properties": {
					"id": "karolkowa",
					"name": "Karolkowa"
				}
			},
			{
				"type": "Feature",
				"geometry": {
					"type": "Point",
					"coordinates": [
						20.96969,
						52.228733
					]
				},
				"properties": {
					"id": "szpital-wolski",
					"name": "Szpital Wolski"
				}
			},
			{
				"type": "Feature",
				"geometry": {
					"type": "Point",
					"coordinates": [
						20.958325,
						52.228032
					]
				},
				"properties": {
					"id": "pkp-wola-kasprzaka",
					"name": "PKP Wola (Kasprzaka)"
				}
			},
			{
				"type": "Feature",
				"geometry": {
					"type": "Point",
					"coordinates": [
						20.951642,
						52.227592
					]
				},
				"properties": {
					"id": "ordona--wsa",
					"name": "Ordona - WSA"
				}
			},
			{
				"type": "Feature",
				"geometry": {
					"type": "Point",
					"coordinates": [
						20.900606,
						52.238646
					]
				},
				"properties": {
					"id": "os-gorczewska",
					"name": "Os. Górczewska"
				}
			},
			{
				"type": "Feature",
				"geometry": {
					"type": "Point",
					"coordinates": [
						20.899904,
						52.246736
					]
				},
				"properties": {
					"id": "fort-blizne",
					"name": "Fort Blizne"
				}
			},
			{
				"type": "Feature",
				"geometry": {
					"type": "Point",
					"coordinates": [
						20.898176,
						52.252411
					]
				},
				"properties": {
					"id": "wat",
					"name": "WAT"
				}
			},
			{
				"type": "Feature",
				"geometry": {
					"type": "Point",
					"coordinates": [
						20.897802,
						52.255903
					]
				},
				"properties": {
					"id": "archimedesa",
					"name": "Archimedesa"
				}
			},
			{
				"type": "Feature",
				"geometry": {
					"type": "Point",
					"coordinates": [
						20.89782,
						52.259947
					]
				},
				"properties": {
					"id": "stare-bemowo",
					"name": "Stare Bemowo"
				}
			},
			{
				"type": "Feature",
				"geometry": {
					"type": "Point",
					"coordinates": [
						20.899872,
						52.263473
					]
				},
				"properties": {
					"id": "boernerowo",
					"name": "Boernerowo"
				}
			},
			{
				"type": "Feature",
				"geometry": {
					"type": "Point",
					"coordinates": [
						20.916304,
						52.225542
					]
				},
				"properties": {
					"id": "synow-pulku",
					"name": "Synów Pułku"
				}
			},
			{
				"type": "Feature",
				"geometry": {
					"type": "Point",
					"coordinates": [
						20.915319,
						52.229057
					]
				},
				"properties": {
					"id": "hala-wola",
					"name": "Hala Wola"
				}
			},
			{
				"type": "Feature",
				"geometry": {
					"type": "Point",
					"coordinates": [
						20.914947,
						52.231464
					]
				},
				"properties": {
					"id": "pl-kasztelanski",
					"name": "Pl. Kasztelański"
				}
			},
			{
				"type": "Feature",
				"geometry": {
					"type": "Point",
					"coordinates": [
						20.91432,
						52.235541
					]
				},
				"properties": {
					"id": "czumy",
					"name": "Czumy"
				}
			},
			{
				"type": "Feature",
				"geometry": {
					"type": "Point",
					"coordinates": [
						20.912536,
						52.242123
					]
				},
				"properties": {
					"id": "kazubow",
					"name": "Kazubów"
				}
			},
			{
				"type": "Feature",
				"geometry": {
					"type": "Point",
					"coordinates": [
						20.927716,
						52.263578
					]
				},
				"properties": {
					"id": "piastow-slaskich",
					"name": "Piastów Śląskich"
				}
			},
			{
				"type": "Feature",
				"geometry": {
					"type": "Point",
					"coordinates": [
						20.913541,
						52.252222
					]
				},
				"properties": {
					"id": "radiowa",
					"name": "Radiowa"
				}
			},
			{
				"type": "Feature",
				"geometry": {
					"type": "Point",
					"coordinates": [
						20.920055,
						52.257203
					]
				},
				"properties": {
					"id": "wroclawska",
					"name": "Wrocławska"
				}
			},
			{
				"type": "Feature",
				"geometry": {
					"type": "Point",
					"coordinates": [
						20.93282,
						52.269067
					]
				},
				"properties": {
					"id": "ogrody-dzialkowe-bemowo",
					"name": "Ogrody Działkowe Bemowo"
				}
			},
			{
				"type": "Feature",
				"geometry": {
					"type": "Point",
					"coordinates": [
						20.970576,
						52.240807
					]
				},
				"properties": {
					"id": "dlugosza",
					"name": "Długosza"
				}
			},
			{
				"type": "Feature",
				"geometry": {
					"type": "Point",
					"coordinates": [
						20.965776,
						52.244531
					]
				},
				"properties": {
					"id": "pl-pole-elekcyjne",
					"name": "Pl. Pole Elekcyjne"
				}
			},
			{
				"type": "Feature",
				"geometry": {
					"type": "Point",
					"coordinates": [
						20.962286,
						52.246365
					]
				},
				"properties": {
					"id": "wawrzyszewska",
					"name": "Wawrzyszewska"
				}
			},
			{
				"type": "Feature",
				"geometry": {
					"type": "Point",
					"coordinates": [
						20.956454,
						52.247359
					]
				},
				"properties": {
					"id": "pkp-kolo",
					"name": "PKP Koło"
				}
			},
			{
				"type": "Feature",
				"geometry": {
					"type": "Point",
					"coordinates": [
						20.953238,
						52.247302
					]
				},
				"properties": {
					"id": "magistracka",
					"name": "Magistracka"
				}
			},
			{
				"type": "Feature",
				"geometry": {
					"type": "Point",
					"coordinates": [
						20.947523,
						52.247054
					]
				},
				"properties": {
					"id": "deotymy",
					"name": "Deotymy"
				}
			},
			{
				"type": "Feature",
				"geometry": {
					"type": "Point",
					"coordinates": [
						20.942803,
						52.246819
					]
				},
				"properties": {
					"id": "dalibora",
					"name": "Dalibora"
				}
			},
			{
				"type": "Feature",
				"geometry": {
					"type": "Point",
					"coordinates": [
						20.938887,
						52.246711
					]
				},
				"properties": {
					"id": "kolo",
					"name": "Koło"
				}
			},
			{
				"type": "Feature",
				"geometry": {
					"type": "Point",
					"coordinates": [
						20.92522,
						52.247252
					]
				},
				"properties": {
					"id": "marynin",
					"name": "Marynin"
				}
			},
			{
				"type": "Feature",
				"geometry": {
					"type": "Point",
					"coordinates": [
						20.916816,
						52.247435
					]
				},
				"properties": {
					"id": "siodlarska",
					"name": "Siodlarska"
				}
			},
			{
				"type": "Feature",
				"geometry": {
					"type": "Point",
					"coordinates": [
						20.91159,
						52.246774
					]
				},
				"properties": {
					"id": "dywizjonu-303",
					"name": "Dywizjonu 303"
				}
			},
			{
				"type": "Feature",
				"geometry": {
					"type": "Point",
					"coordinates": [
						20.906002,
						52.246758
					]
				},
				"properties": {
					"id": "os-zielony-staw",
					"name": "Os. Zielony Staw"
				}
			},
			{
				"type": "Feature",
				"geometry": {
					"type": "Point",
					"coordinates": [
						20.977708,
						52.239612
					]
				},
				"properties": {
					"id": "zytnia",
					"name": "Żytnia"
				}
			},
			{
				"type": "Feature",
				"geometry": {
					"type": "Point",
					"coordinates": [
						20.977924,
						52.241777
					]
				},
				"properties": {
					"id": "dzielna",
					"name": "Dzielna"
				}
			},
			{
				"type": "Feature",
				"geometry": {
					"type": "Point",
					"coordinates": [
						20.977177,
						52.244677
					]
				},
				"properties": {
					"id": "cm-zydowski",
					"name": "Cm. Żydowski"
				}
			},
			{
				"type": "Feature",
				"geometry": {
					"type": "Point",
					"coordinates": [
						20.979342,
						52.248985
					]
				},
				"properties": {
					"id": "niska",
					"name": "Niska"
				}
			},
			{
				"type": "Feature",
				"geometry": {
					"type": "Point",
					"coordinates": [
						20.920768,
						52.248805
					]
				},
				"properties": {
					"id": "orlich-gniazd",
					"name": "Orlich Gniazd"
				}
			},
			{
				"type": "Feature",
				"geometry": {
					"type": "Point",
					"coordinates": [
						20.981298,
						52.253276
					]
				},
				"properties": {
					"id": "powazkowska",
					"name": "Powązkowska"
				}
			},
			{
				"type": "Feature",
				"geometry": {
					"type": "Point",
					"coordinates": [
						20.923851,
						52.260276
					]
				},
				"properties": {
					"id": "nowe-bemowo",
					"name": "Nowe Bemowo"
				}
			},
			{
				"type": "Feature",
				"geometry": {
					"type": "Point",
					"coordinates": [
						20.898521,
						52.249692
					]
				},
				"properties": {
					"id": "kocjana",
					"name": "Kocjana"
				}
			},
			{
				"type": "Feature",
				"geometry": {
					"type": "Point",
					"coordinates": [
						20.992705,
						52.262236
					]
				},
				"properties": {
					"id": "gen-zajaczka",
					"name": "Gen. Zajączka"
				}
			},
			{
				"type": "Feature",
				"geometry": {
					"type": "Point",
					"coordinates": [
						20.989941,
						52.265131
					]
				},
				"properties": {
					"id": "pl-inwalidow",
					"name": "Pl. Inwalidów"
				}
			},
			{
				"type": "Feature",
				"geometry": {
					"type": "Point",
					"coordinates": [
						20.980133,
						52.270297
					]
				},
				"properties": {
					"id": "teatr-komedia",
					"name": "Teatr Komedia"
				}
			},
			{
				"type": "Feature",
				"geometry": {
					"type": "Point",
					"coordinates": [
						20.972928,
						52.271965
					]
				},
				"properties": {
					"id": "metro-marymont",
					"name": "Metro Marymont"
				}
			},
			{
				"type": "Feature",
				"geometry": {
					"type": "Point",
					"coordinates": [
						20.964047,
						52.275556
					]
				},
				"properties": {
					"id": "metro-slodowiec",
					"name": "Metro Słodowiec"
				}
			},
			{
				"type": "Feature",
				"geometry": {
					"type": "Point",
					"coordinates": [
						20.959084,
						52.280588
					]
				},
				"properties": {
					"id": "podlesna--imgw",
					"name": "Podleśna - IMGW"
				}
			},
			{
				"type": "Feature",
				"geometry": {
					"type": "Point",
					"coordinates": [
						20.956276,
						52.28355
					]
				},
				"properties": {
					"id": "awf",
					"name": "AWF"
				}
			},
			{
				"type": "Feature",
				"geometry": {
					"type": "Point",
					"coordinates": [
						20.952678,
						52.287599
					]
				},
				"properties": {
					"id": "szpital-bielanski",
					"name": "Szpital Bielański"
				}
			},
			{
				"type": "Feature",
				"geometry": {
					"type": "Point",
					"coordinates": [
						20.950079,
						52.290257
					]
				},
				"properties": {
					"id": "uksw",
					"name": "UKSW"
				}
			},
			{
				"type": "Feature",
				"geometry": {
					"type": "Point",
					"coordinates": [
						20.945436,
						52.295196
					]
				},
				"properties": {
					"id": "przy-agorze",
					"name": "Przy Agorze"
				}
			},
			{
				"type": "Feature",
				"geometry": {
					"type": "Point",
					"coordinates": [
						20.942906,
						52.297877
					]
				},
				"properties": {
					"id": "cm-wloski",
					"name": "Cm. Włoski"
				}
			},
			{
				"type": "Feature",
				"geometry": {
					"type": "Point",
					"coordinates": [
						20.933436,
						52.278378
					]
				},
				"properties": {
					"id": "aspekt",
					"name": "Aspekt"
				}
			},
			{
				"type": "Feature",
				"geometry": {
					"type": "Point",
					"coordinates": [
						20.928236,
						52.280218
					]
				},
				"properties": {
					"id": "cm-wawrzyszewski",
					"name": "Cm. Wawrzyszewski"
				}
			},
			{
				"type": "Feature",
				"geometry": {
					"type": "Point",
					"coordinates": [
						20.924311,
						52.281272
					]
				},
				"properties": {
					"id": "boguslawskiego",
					"name": "Bogusławskiego"
				}
			},
			{
				"type": "Feature",
				"geometry": {
					"type": "Point",
					"coordinates": [
						20.920167,
						52.282357
					]
				},
				"properties": {
					"id": "popiela",
					"name": "Popiela"
				}
			},
			{
				"type": "Feature",
				"geometry": {
					"type": "Point",
					"coordinates": [
						20.979168,
						52.262537
					]
				},
				"properties": {
					"id": "pl-grunwaldzki",
					"name": "Pl. Grunwaldzki"
				}
			},
			{
				"type": "Feature",
				"geometry": {
					"type": "Point",
					"coordinates": [
						20.971807,
						52.264278
					]
				},
				"properties": {
					"id": "sady-zoliborskie",
					"name": "Sady Żoliborskie"
				}
			},
			{
				"type": "Feature",
				"geometry": {
					"type": "Point",
					"coordinates": [
						20.962905,
						52.266745
					]
				},
				"properties": {
					"id": "wloscianska",
					"name": "Włościańska"
				}
			},
			{
				"type": "Feature",
				"geometry": {
					"type": "Point",
					"coordinates": [
						20.95815,
						52.268052
					]
				},
				"properties": {
					"id": "park-olszyna",
					"name": "Park Olszyna"
				}
			},
			{
				"type": "Feature",
				"geometry": {
					"type": "Point",
					"coordinates": [
						20.953027,
						52.269476
					]
				},
				"properties": {
					"id": "romaszewskiego",
					"name": "Romaszewskiego"
				}
			},
			{
				"type": "Feature",
				"geometry": {
					"type": "Point",
					"coordinates": [
						20.944928,
						52.271708
					]
				},
				"properties": {
					"id": "piaski",
					"name": "Piaski"
				}
			},
			{
				"type": "Feature",
				"geometry": {
					"type": "Point",
					"coordinates": [
						20.938327,
						52.275317
					]
				},
				"properties": {
					"id": "al-reymonta",
					"name": "Al. Reymonta"
				}
			},
			{
				"type": "Feature",
				"geometry": {
					"type": "Point",
					"coordinates": [
						20.93396,
						52.271217
					]
				},
				"properties": {
					"id": "conrada",
					"name": "Conrada"
				}
			},
			{
				"type": "Feature",
				"geometry": {
					"type": "Point",
					"coordinates": [
						20.949315,
						52.281836
					]
				},
				"properties": {
					"id": "stare-bielany",
					"name": "Stare Bielany"
				}
			},
			{
				"type": "Feature",
				"geometry": {
					"type": "Point",
					"coordinates": [
						20.939554,
						52.286322
					]
				},
				"properties": {
					"id": "wawrzyszew",
					"name": "Wawrzyszew"
				}
			},
			{
				"type": "Feature",
				"geometry": {
					"type": "Point",
					"coordinates": [
						20.922936,
						52.284804
					]
				},
				"properties": {
					"id": "nocznickiego",
					"name": "Nocznickiego"
				}
			},
			{
				"type": "Feature",
				"geometry": {
					"type": "Point",
					"coordinates": [
						20.929779,
						52.291835
					]
				},
				"properties": {
					"id": "metro-mlociny",
					"name": "Metro Młociny"
				}
			},
			{
				"type": "Feature",
				"geometry": {
					"type": "Point",
					"coordinates": [
						20.934741,
						52.298896
					]
				},
				"properties": {
					"id": "zajezdnia-zoliborz",
					"name": "Zajezdnia Żoliborz"
				}
			},
			{
				"type": "Feature",
				"geometry": {
					"type": "Point",
					"coordinates": [
						20.983562,
						52.272296
					]
				},
				"properties": {
					"id": "bohomolca",
					"name": "Bohomolca"
				}
			},
			{
				"type": "Feature",
				"geometry": {
					"type": "Point",
					"coordinates": [
						20.981291,
						52.275077
					]
				},
				"properties": {
					"id": "marymontpotok",
					"name": "Marymont-Potok"
				}
			},
			{
				"type": "Feature",
				"geometry": {
					"type": "Point",
					"coordinates": [
						20.9771,
						52.266436
					]
				},
				"properties": {
					"id": "ks-popieluszki",
					"name": "Ks. Popiełuszki"
				}
			},
			{
				"type": "Feature",
				"geometry": {
					"type": "Point",
					"coordinates": [
						21.0019,
						52.227744
					]
				},
				"properties": {
					"id": "dw-centralny",
					"name": "Dw. Centralny"
				}
			},
			{
				"type": "Feature",
				"geometry": {
					"type": "Point",
					"coordinates": [
						21.036788,
						52.235069
					]
				},
				"properties": {
					"id": "most-poniatowskiego",
					"name": "Most Poniatowskiego"
				}
			},
			{
				"type": "Feature",
				"geometry": {
					"type": "Point",
					"coordinates": [
						21.011242,
						52.220051
					]
				},
				"properties": {
					"id": "pl-politechniki",
					"name": "Pl. Politechniki"
				}
			},
			{
				"type": "Feature",
				"geometry": {
					"type": "Point",
					"coordinates": [
						21.015565,
						52.219939
					]
				},
				"properties": {
					"id": "metro-politechnika",
					"name": "Metro Politechnika"
				}
			},
			{
				"type": "Feature",
				"geometry": {
					"type": "Point",
					"coordinates": [
						21.017859,
						52.219864
					]
				},
				"properties": {
					"id": "pl-zbawiciela",
					"name": "Pl. Zbawiciela"
				}
			},
			{
				"type": "Feature",
				"geometry": {
					"type": "Point",
					"coordinates": [
						21.015884,
						52.223146
					]
				},
				"properties": {
					"id": "pl-konstytucji",
					"name": "Pl. Konstytucji"
				}
			},
			{
				"type": "Feature",
				"geometry": {
					"type": "Point",
					"coordinates": [
						21.013652,
						52.226596
					]
				},
				"properties": {
					"id": "hoza",
					"name": "Hoża"
				}
			},
			{
				"type": "Feature",
				"geometry": {
					"type": "Point",
					"coordinates": [
						21.011744,
						52.229833
					]
				},
				"properties": {
					"id": "centrum-tram",
					"name": "Centrum"
				}
			},
			{
				"type": "Feature",
				"geometry": {
					"type": "Point",
					"coordinates": [
						21.008516,
						52.235218
					]
				},
				"properties": {
					"id": "metro-swietokrzyska",
					"name": "Metro Świętokrzyska"
				}
			},
			{
				"type": "Feature",
				"geometry": {
					"type": "Point",
					"coordinates": [
						21.006228,
						52.238714
					]
				},
				"properties": {
					"id": "krolewska",
					"name": "Królewska"
				}
			},
			{
				"type": "Feature",
				"geometry": {
					"type": "Point",
					"coordinates": [
						21.002627,
						52.243291
					]
				},
				"properties": {
					"id": "pl-bankowy",
					"name": "Pl. Bankowy"
				}
			},
			{
				"type": "Feature",
				"geometry": {
					"type": "Point",
					"coordinates": [
						20.998877,
						52.249319
					]
				},
				"properties": {
					"id": "muranow",
					"name": "Muranów"
				}
			},
			{
				"type": "Feature",
				"geometry": {
					"type": "Point",
					"coordinates": [
						20.997742,
						52.253667
					]
				},
				"properties": {
					"id": "muranowska",
					"name": "Muranowska"
				}
			},
			{
				"type": "Feature",
				"geometry": {
					"type": "Point",
					"coordinates": [
						20.990489,
						52.252803
					]
				},
				"properties": {
					"id": "dzika",
					"name": "Dzika"
				}
			},
			{
				"type": "Feature",
				"geometry": {
					"type": "Point",
					"coordinates": [
						21.016362,
						52.230815
					]
				},
				"properties": {
					"id": "krucza",
					"name": "Krucza"
				}
			},
			{
				"type": "Feature",
				"geometry": {
					"type": "Point",
					"coordinates": [
						21.020839,
						52.231771
					]
				},
				"properties": {
					"id": "muzeum-narodowe",
					"name": "Muzeum Narodowe"
				}
			},
			{
				"type": "Feature",
				"geometry": {
					"type": "Point",
					"coordinates": [
						21.017119,
						52.236866
					]
				},
				"properties": {
					"id": "nowy-swiat--uniwersytet",
					"name": "Nowy Świat - Uniwersytet"
				}
			},
			{
				"type": "Feature",
				"geometry": {
					"type": "Point",
					"coordinates": [
						21.015197,
						52.246772
					]
				},
				"properties": {
					"id": "stare-miasto",
					"name": "Stare Miasto"
				}
			},
			{
				"type": "Feature",
				"geometry": {
					"type": "Point",
					"coordinates": [
						20.998612,
						52.25575
					]
				},
				"properties": {
					"id": "ks-polonia",
					"name": "KS Polonia"
				}
			},
			{
				"type": "Feature",
				"geometry": {
					"type": "Point",
					"coordinates": [
						21.002575,
						52.258754
					]
				},
				"properties": {
					"id": "park-traugutta",
					"name": "Park Traugutta"
				}
			},
			{
				"type": "Feature",
				"geometry": {
					"type": "Point",
					"coordinates": [
						21.007405,
						52.260115
					]
				},
				"properties": {
					"id": "most-gdanski",
					"name": "Most Gdański"
				}
			},
			{
				"type": "Feature",
				"geometry": {
					"type": "Point",
					"coordinates": [
						21.019161,
						52.217795
					]
				},
				"properties": {
					"id": "trasa-lazienkowska",
					"name": "Trasa Łazienkowska"
				}
			},
			{
				"type": "Feature",
				"geometry": {
					"type": "Point",
					"coordinates": [
						20.986421,
						52.256105
					]
				},
				"properties": {
					"id": "baseny-inflancka",
					"name": "Baseny Inflancka"
				}
			},
			{
				"type": "Feature",
				"geometry": {
					"type": "Point",
					"coordinates": [
						20.991557,
						52.24424
					]
				},
				"properties": {
					"id": "nowolipki",
					"name": "Nowolipki"
				}
			},
			{
				"type": "Feature",
				"geometry": {
					"type": "Point",
					"coordinates": [
						20.988828,
						52.247381
					]
				},
				"properties": {
					"id": "anielewicza",
					"name": "Anielewicza"
				}
			},
			{
				"type": "Feature",
				"geometry": {
					"type": "Point",
					"coordinates": [
						20.985653,
						52.251025
					]
				},
				"properties": {
					"id": "stawki",
					"name": "Stawki"
				}
			},
			{
				"type": "Feature",
				"geometry": {
					"type": "Point",
					"coordinates": [
						20.993604,
						52.241869
					]
				},
				"properties": {
					"id": "kino-femina",
					"name": "Kino Femina"
				}
			},
			{
				"type": "Feature",
				"geometry": {
					"type": "Point",
					"coordinates": [
						20.996176,
						52.238228
					]
				},
				"properties": {
					"id": "hala-mirowska",
					"name": "Hala Mirowska"
				}
			},
			{
				"type": "Feature",
				"geometry": {
					"type": "Point",
					"coordinates": [
						21.004749,
						52.22302
					]
				},
				"properties": {
					"id": "koszykowa",
					"name": "Koszykowa"
				}
			},
			{
				"type": "Feature",
				"geometry": {
					"type": "Point",
					"coordinates": [
						21.004894,
						52.220214
					]
				},
				"properties": {
					"id": "nowowiejska",
					"name": "Nowowiejska"
				}
			},
			{
				"type": "Feature",
				"geometry": {
					"type": "Point",
					"coordinates": [
						20.982475,
						52.254724
					]
				},
				"properties": {
					"id": "rondo-radoslawa",
					"name": "Rondo „Radosława”"
				}
			},
			{
				"type": "Feature",
				"geometry": {
					"type": "Point",
					"coordinates": [
						21.006283,
						52.213029
					]
				},
				"properties": {
					"id": "biblioteka-narodowa",
					"name": "Biblioteka Narodowa"
				}
			},
			{
				"type": "Feature",
				"geometry": {
					"type": "Point",
					"coordinates": [
						21.001285,
						52.244388
					]
				},
				"properties": {
					"id": "metro-ratusz-arsenal",
					"name": "Metro Ratusz Arsenał"
				}
			},
			{
				"type": "Feature",
				"geometry": {
					"type": "Point",
					"coordinates": [
						20.998805,
						52.227352
					]
				},
				"properties": {
					"id": "warszawa-srodmiescie-wkd",
					"name": "Warszawa Śródmieście WKD"
				}
			},
			{
				"type": "Feature",
				"geometry": {
					"type": "Point",
					"coordinates": [
						20.924621,
						52.186517
					]
				},
				"properties": {
					"id": "warszawa-salomea",
					"name": "Warszawa Salomea"
				}
			},
			{
				"type": "Feature",
				"geometry": {
					"type": "Point",
					"coordinates": [
						20.935838,
						52.194462
					]
				},
				"properties": {
					"id": "warszawa-rakow",
					"name": "Warszawa Raków"
				}
			},
			{
				"type": "Feature",
				"geometry": {
					"type": "Point",
					"coordinates": [
						20.947908,
						52.214385
					]
				},
				"properties": {
					"id": "warszawa-reduta-ordona",
					"name": "Warszawa Reduta Ordona"
				}
			},
			{
				"type": "Feature",
				"geometry": {
					"type": "Point",
					"coordinates": [
						21.003275,
						52.228841
					]
				},
				"properties": {
					"id": "warszawa-centralna",
					"name": "Warszawa Centralna"
				}
			},
			{
				"type": "Feature",
				"geometry": {
					"type": "Point",
					"coordinates": [
						20.99312,
						52.259119
					]
				},
				"properties": {
					"id": "warszawa-gdanska",
					"name": "Warszawa Gdańska"
				}
			},
			{
				"type": "Feature",
				"geometry": {
					"type": "Point",
					"coordinates": [
						21.038321,
						52.255696
					]
				},
				"properties": {
					"id": "warszawa-wilenska",
					"name": "Warszawa Wileńska"
				}
			},
			{
				"type": "Feature",
				"geometry": {
					"type": "Point",
					"coordinates": [
						20.965769,
						52.219956
					]
				},
				"properties": {
					"id": "warszawa-zachodnia",
					"name": "Warszawa Zachodnia"
				}
			},
			{
				"type": "Feature",
				"geometry": {
					"type": "Point",
					"coordinates": [
						20.961421,
						52.222236
					]
				},
				"properties": {
					"id": "warszawa-zachodnia-peron-9",
					"name": "Warszawa Zachodnia (Peron 9)"
				}
			},
			{
				"type": "Feature",
				"geometry": {
					"type": "Point",
					"coordinates": [
						21.080234,
						52.277956
					]
				},
				"properties": {
					"id": "warszawa-zaciszewilno",
					"name": "Warszawa Zacisze-Wilno"
				}
			},
			{
				"type": "Feature",
				"geometry": {
					"type": "Point",
					"coordinates": [
						21.159897,
						52.213032
					]
				},
				"properties": {
					"id": "warszawa-anin",
					"name": "Warszawa Anin"
				}
			},
			{
				"type": "Feature",
				"geometry": {
					"type": "Point",
					"coordinates": [
						20.972277,
						52.35786
					]
				},
				"properties": {
					"id": "warszawa-choszczowka",
					"name": "Warszawa Choszczówka"
				}
			},
			{
				"type": "Feature",
				"geometry": {
					"type": "Point",
					"coordinates": [
						20.991162,
						52.128549
					]
				},
				"properties": {
					"id": "warszawa-dawidy",
					"name": "Warszawa Dawidy"
				}
			},
			{
				"type": "Feature",
				"geometry": {
					"type": "Point",
					"coordinates": [
						21.211008,
						52.161826
					]
				},
				"properties": {
					"id": "warszawa-falenica",
					"name": "Warszawa Falenica"
				}
			},
			{
				"type": "Feature",
				"geometry": {
					"type": "Point",
					"coordinates": [
						20.959013,
						52.246193
					]
				},
				"properties": {
					"id": "warszawa-kolo",
					"name": "Warszawa Koło"
				}
			},
			{
				"type": "Feature",
				"geometry": {
					"type": "Point",
					"coordinates": [
						20.993199,
						52.110303
					]
				},
				"properties": {
					"id": "warszawa-jeziorki",
					"name": "Warszawa Jeziorki"
				}
			},
			{
				"type": "Feature",
				"geometry": {
					"type": "Point",
					"coordinates": [
						20.95845,
						52.238951
					]
				},
				"properties": {
					"id": "warszawa-mlynow",
					"name": "Warszawa Młynów"
				}
			},
			{
				"type": "Feature",
				"geometry": {
					"type": "Point",
					"coordinates": [
						21.200203,
						52.172673
					]
				},
				"properties": {
					"id": "warszawa-miedzeszyn",
					"name": "Warszawa Miedzeszyn"
				}
			},
			{
				"type": "Feature",
				"geometry": {
					"type": "Point",
					"coordinates": [
						21.168956,
						52.203944
					]
				},
				"properties": {
					"id": "warszawa-miedzylesie",
					"name": "Warszawa Międzylesie"
				}
			},
			{
				"type": "Feature",
				"geometry": {
					"type": "Point",
					"coordinates": [
						20.990786,
						52.225805
					]
				},
				"properties": {
					"id": "warszawa-ochota",
					"name": "Warszawa Ochota"
				}
			},
			{
				"type": "Feature",
				"geometry": {
					"type": "Point",
					"coordinates": [
						20.971694,
						52.255931
					]
				},
				"properties": {
					"id": "warszawa-powazki",
					"name": "Warszawa Powązki"
				}
			},
			{
				"type": "Feature",
				"geometry": {
					"type": "Point",
					"coordinates": [
						20.987364,
						52.165969
					]
				},
				"properties": {
					"id": "warszawa-okecie",
					"name": "Warszawa Okęcie"
				}
			},
			{
				"type": "Feature",
				"geometry": {
					"type": "Point",
					"coordinates": [
						21.106705,
						52.249826
					]
				},
				"properties": {
					"id": "warszawa-olszynka-grochowska",
					"name": "Warszawa Olszynka Grochowska"
				}
			},
			{
				"type": "Feature",
				"geometry": {
					"type": "Point",
					"coordinates": [
						20.985913,
						52.334029
					]
				},
				"properties": {
					"id": "warszawa-pludy",
					"name": "Warszawa Płudy"
				}
			},
			{
				"type": "Feature",
				"geometry": {
					"type": "Point",
					"coordinates": [
						21.022657,
						52.276981
					]
				},
				"properties": {
					"id": "warszawa-praga",
					"name": "Warszawa Praga"
				}
			},
			{
				"type": "Feature",
				"geometry": {
					"type": "Point",
					"coordinates": [
						21.187142,
						52.18574
					]
				},
				"properties": {
					"id": "warszawa-radosc",
					"name": "Warszawa Radość"
				}
			},
			{
				"type": "Feature",
				"geometry": {
					"type": "Point",
					"coordinates": [
						20.966035,
						52.196817
					]
				},
				"properties": {
					"id": "warszawa-rakowiec",
					"name": "Warszawa Rakowiec"
				}
			},
			{
				"type": "Feature",
				"geometry": {
					"type": "Point",
					"coordinates": [
						20.980379,
						52.19341
					]
				},
				"properties": {
					"id": "warszawa-zwirki-i-wigury",
					"name": "Warszawa Żwirki i Wigury"
				}
			},
			{
				"type": "Feature",
				"geometry": {
					"type": "Point",
					"coordinates": [
						21.15822,
						52.257128
					]
				},
				"properties": {
					"id": "warszawa-rembertow",
					"name": "Warszawa Rembertów"
				}
			},
			{
				"type": "Feature",
				"geometry": {
					"type": "Point",
					"coordinates": [
						20.975181,
						52.169629
					]
				},
				"properties": {
					"id": "warszawa-lotnisko-chopina",
					"name": "Warszawa Lotnisko Chopina"
				}
			},
			{
				"type": "Feature",
				"geometry": {
					"type": "Point",
					"coordinates": [
						21.007599,
						52.229387
					]
				},
				"properties": {
					"id": "warszawa-srodmiescie",
					"name": "Warszawa Śródmieście"
				}
			},
			{
				"type": "Feature",
				"geometry": {
					"type": "Point",
					"coordinates": [
						21.013088,
						52.294097
					]
				},
				"properties": {
					"id": "warszawa-torunska",
					"name": "Warszawa Toruńska"
				}
			},
			{
				"type": "Feature",
				"geometry": {
					"type": "Point",
					"coordinates": [
						20.889771,
						52.205692
					]
				},
				"properties": {
					"id": "warszawa-ursus-polnocny",
					"name": "Warszawa Ursus Północny"
				}
			},
			{
				"type": "Feature",
				"geometry": {
					"type": "Point",
					"coordinates": [
						21.149553,
						52.223383
					]
				},
				"properties": {
					"id": "warszawa-wawer",
					"name": "Warszawa Wawer"
				}
			},
			{
				"type": "Feature",
				"geometry": {
					"type": "Point",
					"coordinates": [
						20.869473,
						52.191353
					]
				},
				"properties": {
					"id": "warszawa-ursus-niedzwiadek",
					"name": "Warszawa Ursus Niedźwiadek"
				}
			},
			{
				"type": "Feature",
				"geometry": {
					"type": "Point",
					"coordinates": [
						21.018001,
						52.263572
					]
				},
				"properties": {
					"id": "warszawa-zoo",
					"name": "Warszawa ZOO"
				}
			},
			{
				"type": "Feature",
				"geometry": {
					"type": "Point",
					"coordinates": [
						20.998936,
						52.314133
					]
				},
				"properties": {
					"id": "warszawa-zeran",
					"name": "Warszawa Żerań"
				}
			},
			{
				"type": "Feature",
				"geometry": {
					"type": "Point",
					"coordinates": [
						21.22409,
						52.254087
					]
				},
				"properties": {
					"id": "warszawa-wesola",
					"name": "Warszawa Wesoła"
				}
			},
			{
				"type": "Feature",
				"geometry": {
					"type": "Point",
					"coordinates": [
						21.250865,
						52.252827
					]
				},
				"properties": {
					"id": "warszawa-wola-grzybowska",
					"name": "Warszawa Wola Grzybowska"
				}
			},
			{
				"type": "Feature",
				"geometry": {
					"type": "Point",
					"coordinates": [
						20.95784,
						52.229863
					]
				},
				"properties": {
					"id": "warszawa-wola",
					"name": "Warszawa Wola"
				}
			},
			{
				"type": "Feature",
				"geometry": {
					"type": "Point",
					"coordinates": [
						20.885342,
						52.196484
					]
				},
				"properties": {
					"id": "warszawa-ursus",
					"name": "Warszawa Ursus"
				}
			},
			{
				"type": "Feature",
				"geometry": {
					"type": "Point",
					"coordinates": [
						20.987018,
						52.180865
					]
				},
				"properties": {
					"id": "warszawa-sluzewiec",
					"name": "Warszawa Służewiec"
				}
			},
			{
				"type": "Feature",
				"geometry": {
					"type": "Point",
					"coordinates": [
						21.052251,
						52.251438
					]
				},
				"properties": {
					"id": "warszawa-wschodnia",
					"name": "Warszawa Wschodnia"
				}
			},
			{
				"type": "Feature",
				"geometry": {
					"type": "Point",
					"coordinates": [
						21.028092,
						52.233742
					]
				},
				"properties": {
					"id": "warszawa-powisle",
					"name": "Warszawa Powiśle"
				}
			},
			{
				"type": "Feature",
				"geometry": {
					"type": "Point",
					"coordinates": [
						21.132666,
						52.238722
					]
				},
				"properties": {
					"id": "warszawa-goclawek",
					"name": "Warszawa Gocławek"
				}
			},
			{
				"type": "Feature",
				"geometry": {
					"type": "Point",
					"coordinates": [
						20.914975,
						52.206269
					]
				},
				"properties": {
					"id": "warszawa-wlochy",
					"name": "Warszawa Włochy"
				}
			},
			{
				"type": "Feature",
				"geometry": {
					"type": "Point",
					"coordinates": [
						21.084255,
						52.25549
					]
				},
				"properties": {
					"id": "warszawa-grochow",
					"name": "Warszawa Grochów"
				}
			},
			{
				"type": "Feature",
				"geometry": {
					"type": "Point",
					"coordinates": [
						21.043813,
						52.244794
					]
				},
				"properties": {
					"id": "warszawa-stadion",
					"name": "Warszawa Stadion"
				}
			},
			{
				"type": "Feature",
				"geometry": {
					"type": "Point",
					"coordinates": [
						21.051568,
						52.264317
					]
				},
				"properties": {
					"id": "warszawa-targowek",
					"name": "Warszawa Targówek"
				}
			},
			{
				"type": "Feature",
				"geometry": {
					"type": "Point",
					"coordinates": [
						20.998348,
						52.233133
					]
				},
				"properties": {
					"id": "rondo-onz-tram",
					"name": "Rondo ONZ"
				}
			},
			{
				"type": "Feature",
				"geometry": {
					"type": "Point",
					"coordinates": [
						20.917935,
						52.220807
					]
				},
				"properties": {
					"id": "cieplownia-wola",
					"name": "Ciepłownia Wola"
				}
			},
			{
				"type": "Feature",
				"geometry": {
					"type": "Point",
					"coordinates": [
						20.995739,
						52.25826
					]
				},
				"properties": {
					"id": "dw-gdanski",
					"name": "Dw. Gdański"
				}
			},
			{
				"type": "Feature",
				"geometry": {
					"type": "Point",
					"coordinates": [
						20.986459,
						52.268875
					]
				},
				"properties": {
					"id": "pl-wilsona",
					"name": "Pl. Wilsona"
				}
			},
			{
				"type": "Feature",
				"geometry": {
					"type": "Point",
					"coordinates": [
						21.027049,
						52.293514
					]
				},
				"properties": {
					"id": "metro-brodno",
					"name": "Metro Bródno"
				}
			},
			{
				"type": "Feature",
				"geometry": {
					"type": "Point",
					"coordinates": [
						20.96731,
						52.273495
					]
				},
				"properties": {
					"id": "park-kaskada",
					"name": "Park Kaskada"
				}
			},
			{
				"type": "Feature",
				"geometry": {
					"type": "Point",
					"coordinates": [
						20.913157,
						52.239114
					]
				},
				"properties": {
					"id": "metro-bemowo",
					"name": "Metro Bemowo"
				}
			},
			{
				"type": "Feature",
				"geometry": {
					"type": "Point",
					"coordinates": [
						21.016599,
						52.189907
					]
				},
				"properties": {
					"id": "wierzbno",
					"name": "Wierzbno"
				}
			},
			{
				"type": "Feature",
				"geometry": {
					"type": "Point",
					"coordinates": [
						21.015322,
						52.218421
					]
				},
				"properties": {
					"id": "politechnika",
					"name": "Politechnika"
				}
			},
			{
				"type": "Feature",
				"geometry": {
					"type": "Point",
					"coordinates": [
						21.010188,
						52.231059
					]
				},
				"properties": {
					"id": "centrum-metro",
					"name": "Centrum"
				}
			},
			{
				"type": "Feature",
				"geometry": {
					"type": "Point",
					"coordinates": [
						20.984284,
						52.269339
					]
				},
				"properties": {
					"id": "plac-wilsona",
					"name": "Plac Wilsona"
				}
			},
			{
				"type": "Feature",
				"geometry": {
					"type": "Point",
					"coordinates": [
						20.971999,
						52.271663
					]
				},
				"properties": {
					"id": "marymont",
					"name": "Marymont"
				}
			},
			{
				"type": "Feature",
				"geometry": {
					"type": "Point",
					"coordinates": [
						20.960208,
						52.276787
					]
				},
				"properties": {
					"id": "slodowiec",
					"name": "Słodowiec"
				}
			},
			{
				"type": "Feature",
				"geometry": {
					"type": "Point",
					"coordinates": [
						20.929926,
						52.290741
					]
				},
				"properties": {
					"id": "mlociny",
					"name": "Młociny"
				}
			},
			{
				"type": "Feature",
				"geometry": {
					"type": "Point",
					"coordinates": [
						20.91502,
						52.23929
					]
				},
				"properties": {
					"id": "bemowo",
					"name": "Bemowo"
				}
			},
			{
				"type": "Feature",
				"geometry": {
					"type": "Point",
					"coordinates": [
						20.966178,
						52.2329
					]
				},
				"properties": {
					"id": "plocka",
					"name": "Płocka"
				}
			},
			{
				"type": "Feature",
				"geometry": {
					"type": "Point",
					"coordinates": [
						20.982744,
						52.230011
					]
				},
				"properties": {
					"id": "rondo-daszynskiego-metro",
					"name": "Rondo Daszyńskiego"
				}
			},
			{
				"type": "Feature",
				"geometry": {
					"type": "Point",
					"coordinates": [
						20.997842,
						52.23303
					]
				},
				"properties": {
					"id": "rondo-onz-metro",
					"name": "Rondo ONZ"
				}
			},
			{
				"type": "Feature",
				"geometry": {
					"type": "Point",
					"coordinates": [
						21.031448,
						52.239765
					]
				},
				"properties": {
					"id": "centrum-nauki-kopernik",
					"name": "Centrum Nauki Kopernik"
				}
			},
			{
				"type": "Feature",
				"geometry": {
					"type": "Point",
					"coordinates": [
						21.035401,
						52.254151
					]
				},
				"properties": {
					"id": "dworzec-wielnski",
					"name": "Dworzec Wielński"
				}
			},
			{
				"type": "Feature",
				"geometry": {
					"type": "Point",
					"coordinates": [
						21.02907,
						52.29356
					]
				},
				"properties": {
					"id": "brodno",
					"name": "Bródno"
				}
			},
			{
				"type": "Feature",
				"geometry": {
					"type": "Point",
					"coordinates": [
						20.959854,
						52.237702
					]
				},
				"properties": {
					"id": "mlynow",
					"name": "Młynów"
				}
			},
			{
				"type": "Feature",
				"geometry": {
					"type": "Point",
					"coordinates": [
						21.013359,
						52.208537
					]
				},
				"properties": {
					"id": "mokotow--ratusz",
					"name": "Mokotów - Ratusz"
				}
			},
			{
				"type": "Feature",
				"geometry": {
					"type": "Point",
					"coordinates": [
						21.023535,
						52.18144
					]
				},
				"properties": {
					"id": "wilanowska",
					"name": "Wilanowska"
				}
			},
			{
				"type": "Feature",
				"geometry": {
					"type": "Point",
					"coordinates": [
						21.007681,
						52.208813
					]
				},
				"properties": {
					"id": "pole-mokotowskie",
					"name": "Pole Mokotowskie"
				}
			},
			{
				"type": "Feature",
				"geometry": {
					"type": "Point",
					"coordinates": [
						21.008016,
						52.23529
					]
				},
				"properties": {
					"id": "swietokrzyska",
					"name": "Świętokrzyska"
				}
			},
			{
				"type": "Feature",
				"geometry": {
					"type": "Point",
					"coordinates": [
						21.000803,
						52.245211
					]
				},
				"properties": {
					"id": "ratusz-arsenal",
					"name": "Ratusz Arsenał"
				}
			},
			{
				"type": "Feature",
				"geometry": {
					"type": "Point",
					"coordinates": [
						20.99416,
						52.258185
					]
				},
				"properties": {
					"id": "dworzec-gdanski",
					"name": "Dworzec Gdański"
				}
			}
		]
	},
	"points": {
		"Airports": {
			"type": "FeatureCollection",
			"features": [
				{
					"type": "Feature",
					"geometry": {
						"type": "Point",
						"coordinates": [
							20.974356,
							52.168667
						]
					},
					"properties": {
						"id": "epwa-lotnisko-chopina",
						"name": "EPWA Lotnisko Chopina"
					}
				},
				{
					"type": "Feature",
					"geometry": {
						"type": "Point",
						"coordinates": [
							20.907217,
							52.269183
						]
					},
					"properties": {
						"id": "epba-lotnisko-babice",
						"name": "EPBA Lotnisko Babice"
					}
				}
			]
		},
		"Parks": {
			"type": "FeatureCollection",
			"features": [
				{
					"type": "Feature",
					"geometry": {
						"type": "Point",
						"coordinates": [
							20.865351,
							52.197826
						]
					},
					"properties": {
						"id": "zieleniec-przy-ul-krolow-polskich",
						"name": "Zieleniec przy ul. Królów Polskich"
					}
				},
				{
					"type": "Feature",
					"geometry": {
						"type": "Point",
						"coordinates": [
							21.049289,
							52.164193
						]
					},
					"properties": {
						"id": "park-rozkosz",
						"name": "Park Rozkosz"
					}
				},
				{
					"type": "Feature",
					"geometry": {
						"type": "Point",
						"coordinates": [
							20.873925,
							52.196982
						]
					},
					"properties": {
						"id": "park-hassow",
						"name": "Park Hassów"
					}
				},
				{
					"type": "Feature",
					"geometry": {
						"type": "Point",
						"coordinates": [
							20.8734,
							52.20125
						]
					},
					"properties": {
						"id": "eko-park-ursus",
						"name": "Eko Park Ursus"
					}
				},
				{
					"type": "Feature",
					"geometry": {
						"type": "Point",
						"coordinates": [
							21.028561,
							52.156321
						]
					},
					"properties": {
						"id": "park-jana-pawla-ii",
						"name": "Park Jana Pawła II"
					}
				},
				{
					"type": "Feature",
					"geometry": {
						"type": "Point",
						"coordinates": [
							21.095935,
							52.237635
						]
					},
					"properties": {
						"id": "park-znicza",
						"name": "Park Znicza"
					}
				},
				{
					"type": "Feature",
					"geometry": {
						"type": "Point",
						"coordinates": [
							21.006031,
							52.257388
						]
					},
					"properties": {
						"id": "park-traugutta",
						"name": "Park Traugutta"
					}
				},
				{
					"type": "Feature",
					"geometry": {
						"type": "Point",
						"coordinates": [
							20.885096,
							52.192088
						]
					},
					"properties": {
						"id": "park-czechowicki",
						"name": "Park Czechowicki"
					}
				},
				{
					"type": "Feature",
					"geometry": {
						"type": "Point",
						"coordinates": [
							20.895278,
							52.195808
						]
					},
					"properties": {
						"id": "park-achera",
						"name": "Park Achera"
					}
				},
				{
					"type": "Feature",
					"geometry": {
						"type": "Point",
						"coordinates": [
							20.889537,
							52.198894
						]
					},
					"properties": {
						"id": "park-planeta-ursus",
						"name": "Park Planeta Ursus"
					}
				},
				{
					"type": "Feature",
					"geometry": {
						"type": "Point",
						"coordinates": [
							21.032771,
							52.16018
						]
					},
					"properties": {
						"id": "plac-wielkiej-przygody",
						"name": "Plac Wielkiej Przygody"
					}
				},
				{
					"type": "Feature",
					"geometry": {
						"type": "Point",
						"coordinates": [
							20.988607,
							52.202293
						]
					},
					"properties": {
						"id": "cmentarz-mauzoleum-zolnierzy-radzieckich",
						"name": "Cmentarz Mauzoleum Żołnierzy Radzieckich"
					}
				},
				{
					"type": "Feature",
					"geometry": {
						"type": "Point",
						"coordinates": [
							20.895747,
							52.205247
						]
					},
					"properties": {
						"id": "plac-wolnosci",
						"name": "Plac Wolności"
					}
				},
				{
					"type": "Feature",
					"geometry": {
						"type": "Point",
						"coordinates": [
							21.024572,
							52.160138
						]
					},
					"properties": {
						"id": "park-olkowek",
						"name": "Park Olkówek"
					}
				},
				{
					"type": "Feature",
					"geometry": {
						"type": "Point",
						"coordinates": [
							20.969938,
							52.210368
						]
					},
					"properties": {
						"id": "skwer-dobrego-maharadzy",
						"name": "Skwer Dobrego Maharadży"
					}
				},
				{
					"type": "Feature",
					"geometry": {
						"type": "Point",
						"coordinates": [
							21.056243,
							52.211552
						]
					},
					"properties": {
						"id": "park-akcji-burza",
						"name": "Park Akcji „Burza”"
					}
				},
				{
					"type": "Feature",
					"geometry": {
						"type": "Point",
						"coordinates": [
							20.912046,
							52.207281
						]
					},
					"properties": {
						"id": "park-kombatantow",
						"name": "Park Kombatantów"
					}
				},
				{
					"type": "Feature",
					"geometry": {
						"type": "Point",
						"coordinates": [
							21.031436,
							52.168194
						]
					},
					"properties": {
						"id": "dolinka-sluzewska",
						"name": "Dolinka Służewska"
					}
				},
				{
					"type": "Feature",
					"geometry": {
						"type": "Point",
						"coordinates": [
							20.978608,
							52.211694
						]
					},
					"properties": {
						"id": "skwer-rodziny-wolskich",
						"name": "Skwer Rodziny Wolskich"
					}
				},
				{
					"type": "Feature",
					"geometry": {
						"type": "Point",
						"coordinates": [
							20.923006,
							52.200839
						]
					},
					"properties": {
						"id": "park-ze-stawami-cietrzewia",
						"name": "Park ze Stawami Cietrzewia"
					}
				},
				{
					"type": "Feature",
					"geometry": {
						"type": "Point",
						"coordinates": [
							20.922432,
							52.209862
						]
					},
					"properties": {
						"id": "ogrody-kosmosu",
						"name": "Ogrody Kosmosu"
					}
				},
				{
					"type": "Feature",
					"geometry": {
						"type": "Point",
						"coordinates": [
							21.032381,
							52.219177
						]
					},
					"properties": {
						"id": "park-agrykola",
						"name": "Park Agrykola"
					}
				},
				{
					"type": "Feature",
					"geometry": {
						"type": "Point",
						"coordinates": [
							20.998607,
							52.120195
						]
					},
					"properties": {
						"id": "park-nad-jeziorem-zgorzala",
						"name": "Park nad Jeziorem Zgorzała"
					}
				},
				{
					"type": "Feature",
					"geometry": {
						"type": "Point",
						"coordinates": [
							21.005224,
							52.169258
						]
					},
					"properties": {
						"id": "park-bartlomieja",
						"name": "Park Bartłomieja"
					}
				},
				{
					"type": "Feature",
					"geometry": {
						"type": "Point",
						"coordinates": [
							21.014357,
							52.168931
						]
					},
					"properties": {
						"id": "park-nad-stawem-sluzewieckim",
						"name": "Park nad Stawem Służewieckim"
					}
				},
				{
					"type": "Feature",
					"geometry": {
						"type": "Point",
						"coordinates": [
							20.966303,
							52.216712
						]
					},
					"properties": {
						"id": "park-pieciu-siostr",
						"name": "Park Pięciu Sióstr"
					}
				},
				{
					"type": "Feature",
					"geometry": {
						"type": "Point",
						"coordinates": [
							21.025881,
							52.221873
						]
					},
					"properties": {
						"id": "park-ujazdowski",
						"name": "Park Ujazdowski"
					}
				},
				{
					"type": "Feature",
					"geometry": {
						"type": "Point",
						"coordinates": [
							21.102873,
							52.120022
						]
					},
					"properties": {
						"id": "skwer-franciszka-pieniaka",
						"name": "Skwer Franciszka Pieniaka"
					}
				},
				{
					"type": "Feature",
					"geometry": {
						"type": "Point",
						"coordinates": [
							21.023112,
							52.164404
						]
					},
					"properties": {
						"id": "park-romana-kozlowskiego",
						"name": "Park Romana Kozłowskiego"
					}
				},
				{
					"type": "Feature",
					"geometry": {
						"type": "Point",
						"coordinates": [
							20.98469,
							52.214481
						]
					},
					"properties": {
						"id": "park-marii-sklodowskiejcurie",
						"name": "Park Marii Skłodowskiej-Curie"
					}
				},
				{
					"type": "Feature",
					"geometry": {
						"type": "Point",
						"coordinates": [
							21.031695,
							52.227905
						]
					},
					"properties": {
						"id": "park-im-marszalka-edwarda-rydzasmiglego",
						"name": "Park im. Marszałka Edwarda Rydza-Śmigłego"
					}
				},
				{
					"type": "Feature",
					"geometry": {
						"type": "Point",
						"coordinates": [
							21.089848,
							52.248972
						]
					},
					"properties": {
						"id": "park-jozefa-polinskiego",
						"name": "Park Józefa Polińskiego"
					}
				},
				{
					"type": "Feature",
					"geometry": {
						"type": "Point",
						"coordinates": [
							21.050835,
							52.272308
						]
					},
					"properties": {
						"id": "park-stefana-wiecheckiego-wiecha",
						"name": "Park Stefana Wiecheckiego „Wiecha”"
					}
				},
				{
					"type": "Feature",
					"geometry": {
						"type": "Point",
						"coordinates": [
							21.054425,
							52.132035
						]
					},
					"properties": {
						"id": "park-moczydelko",
						"name": "Park Moczydełko"
					}
				},
				{
					"type": "Feature",
					"geometry": {
						"type": "Point",
						"coordinates": [
							21.090145,
							52.16435
						]
					},
					"properties": {
						"id": "park-wilanowski",
						"name": "Park Wilanowski"
					}
				},
				{
					"type": "Feature",
					"geometry": {
						"type": "Point",
						"coordinates": [
							21.066456,
							52.136701
						]
					},
					"properties": {
						"id": "park-przy-bazantarni",
						"name": "Park przy Bażantarni"
					}
				},
				{
					"type": "Feature",
					"geometry": {
						"type": "Point",
						"coordinates": [
							21.068559,
							52.183511
						]
					},
					"properties": {
						"id": "park-czeslawa-szczubelka",
						"name": "Park Czesława Szczubełka"
					}
				},
				{
					"type": "Feature",
					"geometry": {
						"type": "Point",
						"coordinates": [
							21.078584,
							52.14168
						]
					},
					"properties": {
						"id": "park-natolinski",
						"name": "Park Natoliński"
					}
				},
				{
					"type": "Feature",
					"geometry": {
						"type": "Point",
						"coordinates": [
							21.036871,
							52.180254
						]
					},
					"properties": {
						"id": "park-enklawa",
						"name": "Park Enklawa"
					}
				},
				{
					"type": "Feature",
					"geometry": {
						"type": "Point",
						"coordinates": [
							21.011824,
							52.205503
						]
					},
					"properties": {
						"id": "skwer-antoniego-slonimskiego",
						"name": "Skwer Antoniego Słonimskiego"
					}
				},
				{
					"type": "Feature",
					"geometry": {
						"type": "Point",
						"coordinates": [
							20.994637,
							52.217862
						]
					},
					"properties": {
						"id": "park-wielkopolski",
						"name": "Park Wielkopolski"
					}
				},
				{
					"type": "Feature",
					"geometry": {
						"type": "Point",
						"coordinates": [
							21.073118,
							52.246939
						]
					},
					"properties": {
						"id": "park-obwodu-praga-ak",
						"name": "Park Obwodu Praga AK"
					}
				},
				{
					"type": "Feature",
					"geometry": {
						"type": "Point",
						"coordinates": [
							21.043796,
							52.136596
						]
					},
					"properties": {
						"id": "park-im-cichociemnych-spadochroniarzy-ak",
						"name": "Park im. Cichociemnych Spadochroniarzy AK"
					}
				},
				{
					"type": "Feature",
					"geometry": {
						"type": "Point",
						"coordinates": [
							21.056328,
							52.187669
						]
					},
					"properties": {
						"id": "park-stanislawa-dygata",
						"name": "Park Stanisława Dygata"
					}
				},
				{
					"type": "Feature",
					"geometry": {
						"type": "Point",
						"coordinates": [
							21.008603,
							52.211287
						]
					},
					"properties": {
						"id": "skwer-wasyla-stusa",
						"name": "Skwer Wasyla Stusa"
					}
				},
				{
					"type": "Feature",
					"geometry": {
						"type": "Point",
						"coordinates": [
							21.05607,
							52.137755
						]
					},
					"properties": {
						"id": "sadek-natolinski",
						"name": "Sadek Natoliński"
					}
				},
				{
					"type": "Feature",
					"geometry": {
						"type": "Point",
						"coordinates": [
							20.987149,
							52.185839
						]
					},
					"properties": {
						"id": "park-linearny-suwak",
						"name": "Park linearny \"Suwak\""
					}
				},
				{
					"type": "Feature",
					"geometry": {
						"type": "Point",
						"coordinates": [
							20.998567,
							52.212208
						]
					},
					"properties": {
						"id": "pole-mokotowskie",
						"name": "Pole Mokotowskie"
					}
				},
				{
					"type": "Feature",
					"geometry": {
						"type": "Point",
						"coordinates": [
							20.996469,
							52.224377
						]
					},
					"properties": {
						"id": "skwer-alfonsa-grotowskiego",
						"name": "Skwer Alfonsa Grotowskiego"
					}
				},
				{
					"type": "Feature",
					"geometry": {
						"type": "Point",
						"coordinates": [
							21.065511,
							52.242938
						]
					},
					"properties": {
						"id": "kamionkowskie-blonia-elekcyjne",
						"name": "Kamionkowskie Błonia Elekcyjne"
					}
				},
				{
					"type": "Feature",
					"geometry": {
						"type": "Point",
						"coordinates": [
							21.037359,
							52.290423
						]
					},
					"properties": {
						"id": "park-brodnowski",
						"name": "Park Bródnowski"
					}
				},
				{
					"type": "Feature",
					"geometry": {
						"type": "Point",
						"coordinates": [
							21.030058,
							52.241316
						]
					},
					"properties": {
						"id": "park-odkrywcow",
						"name": "Park Odkrywców"
					}
				},
				{
					"type": "Feature",
					"geometry": {
						"type": "Point",
						"coordinates": [
							21.008262,
							52.240467
						]
					},
					"properties": {
						"id": "ogrod-saski",
						"name": "Ogród Saski"
					}
				},
				{
					"type": "Feature",
					"geometry": {
						"type": "Point",
						"coordinates": [
							20.971098,
							52.273463
						]
					},
					"properties": {
						"id": "park-kaskada",
						"name": "Park Kaskada"
					}
				},
				{
					"type": "Feature",
					"geometry": {
						"type": "Point",
						"coordinates": [
							20.972556,
							52.291682
						]
					},
					"properties": {
						"id": "park-przy-lesie-bielanskim",
						"name": "Park przy Lesie Bielańskim"
					}
				},
				{
					"type": "Feature",
					"geometry": {
						"type": "Point",
						"coordinates": [
							20.969205,
							52.237849
						]
					},
					"properties": {
						"id": "plac-opolski",
						"name": "Plac Opolski"
					}
				},
				{
					"type": "Feature",
					"geometry": {
						"type": "Point",
						"coordinates": [
							20.933235,
							52.240445
						]
					},
					"properties": {
						"id": "park-ulricha",
						"name": "Park Ulricha"
					}
				},
				{
					"type": "Feature",
					"geometry": {
						"type": "Point",
						"coordinates": [
							20.99984,
							52.238235
						]
					},
					"properties": {
						"id": "park-mirowski",
						"name": "Park Mirowski"
					}
				},
				{
					"type": "Feature",
					"geometry": {
						"type": "Point",
						"coordinates": [
							20.965433,
							52.261063
						]
					},
					"properties": {
						"id": "skwer-aleksandry-pilsudskiej",
						"name": "Skwer Aleksandry Piłsudskiej"
					}
				},
				{
					"type": "Feature",
					"geometry": {
						"type": "Point",
						"coordinates": [
							21.058108,
							52.141519
						]
					},
					"properties": {
						"id": "lasek-brzozowy",
						"name": "Lasek Brzozowy"
					}
				},
				{
					"type": "Feature",
					"geometry": {
						"type": "Point",
						"coordinates": [
							20.967669,
							52.195977
						]
					},
					"properties": {
						"id": "park-marka-kotanskiego",
						"name": "Park Marka Kotańskiego"
					}
				},
				{
					"type": "Feature",
					"geometry": {
						"type": "Point",
						"coordinates": [
							21.027373,
							52.189046
						]
					},
					"properties": {
						"id": "krolikarnia",
						"name": "Królikarnia"
					}
				},
				{
					"type": "Feature",
					"geometry": {
						"type": "Point",
						"coordinates": [
							21.140126,
							52.210602
						]
					},
					"properties": {
						"id": "park-aktywnosci-rodzinnej",
						"name": "Park Aktywności Rodzinnej"
					}
				},
				{
					"type": "Feature",
					"geometry": {
						"type": "Point",
						"coordinates": [
							21.054439,
							52.242254
						]
					},
					"properties": {
						"id": "park-skaryszewski",
						"name": "Park Skaryszewski"
					}
				},
				{
					"type": "Feature",
					"geometry": {
						"type": "Point",
						"coordinates": [
							21.073922,
							52.292681
						]
					},
					"properties": {
						"id": "park-linearny-nad-kanalem-zaciszanskim",
						"name": "Park linearny nad Kanałem Zaciszańskim"
					}
				},
				{
					"type": "Feature",
					"geometry": {
						"type": "Point",
						"coordinates": [
							21.021051,
							52.240993
						]
					},
					"properties": {
						"id": "park-kazimierzowski",
						"name": "Park Kazimierzowski"
					}
				},
				{
					"type": "Feature",
					"geometry": {
						"type": "Point",
						"coordinates": [
							20.998638,
							52.257253
						]
					},
					"properties": {
						"id": "szkolny-park-sportowy-imienia-janusza-kusocinskiego",
						"name": "Szkolny Park Sportowy imienia Janusza Kusocińskiego"
					}
				},
				{
					"type": "Feature",
					"geometry": {
						"type": "Point",
						"coordinates": [
							20.978737,
							52.280972
						]
					},
					"properties": {
						"id": "park-harcerskiej-poczty-polowej-powstania-warszawskiego",
						"name": "Park Harcerskiej Poczty Polowej Powstania Warszawskiego"
					}
				},
				{
					"type": "Feature",
					"geometry": {
						"type": "Point",
						"coordinates": [
							20.973329,
							52.26758
						]
					},
					"properties": {
						"id": "park-sady-zoliborskie",
						"name": "Park Sady Żoliborskie"
					}
				},
				{
					"type": "Feature",
					"geometry": {
						"type": "Point",
						"coordinates": [
							20.948267,
							52.229849
						]
					},
					"properties": {
						"id": "park-jozefa-sowinskiego",
						"name": "Park Józefa Sowińskiego"
					}
				},
				{
					"type": "Feature",
					"geometry": {
						"type": "Point",
						"coordinates": [
							20.905352,
							52.233372
						]
					},
					"properties": {
						"id": "park-gorczewska",
						"name": "Park Górczewska"
					}
				},
				{
					"type": "Feature",
					"geometry": {
						"type": "Point",
						"coordinates": [
							20.987664,
							52.245277
						]
					},
					"properties": {
						"id": "skwer-gen-jana-juragorzechowskiego",
						"name": "Skwer gen. Jana Jura-Gorzechowskiego"
					}
				},
				{
					"type": "Feature",
					"geometry": {
						"type": "Point",
						"coordinates": [
							20.954791,
							52.273725
						]
					},
					"properties": {
						"id": "park-zbigniewa-herberta",
						"name": "Park Zbigniewa Herberta"
					}
				},
				{
					"type": "Feature",
					"geometry": {
						"type": "Point",
						"coordinates": [
							21.051263,
							52.144551
						]
					},
					"properties": {
						"id": "park-linearny-nad-pow",
						"name": "Park linearny nad POW"
					}
				},
				{
					"type": "Feature",
					"geometry": {
						"type": "Point",
						"coordinates": [
							20.949078,
							52.209409
						]
					},
					"properties": {
						"id": "rod-fort-szczesliwice",
						"name": "ROD Fort Szczęśliwice"
					}
				},
				{
					"type": "Feature",
					"geometry": {
						"type": "Point",
						"coordinates": [
							21.021572,
							52.19751
						]
					},
					"properties": {
						"id": "park-dreszera",
						"name": "Park Dreszera"
					}
				},
				{
					"type": "Feature",
					"geometry": {
						"type": "Point",
						"coordinates": [
							21.112046,
							52.241912
						]
					},
					"properties": {
						"id": "park-pulkownika-jana-szypowskiego-lesnika",
						"name": "Park Pułkownika Jana Szypowskiego \"Leśnika\""
					}
				},
				{
					"type": "Feature",
					"geometry": {
						"type": "Point",
						"coordinates": [
							21.059037,
							52.247472
						]
					},
					"properties": {
						"id": "centrum-lokalne-kamionek",
						"name": "Centrum Lokalne Kamionek"
					}
				},
				{
					"type": "Feature",
					"geometry": {
						"type": "Point",
						"coordinates": [
							21.028846,
							52.295993
						]
					},
					"properties": {
						"id": "viii-ogrod-jordanowski",
						"name": "VIII Ogród Jordanowski"
					}
				},
				{
					"type": "Feature",
					"geometry": {
						"type": "Point",
						"coordinates": [
							21.024157,
							52.243402
						]
					},
					"properties": {
						"id": "ogrod-buw-dolny",
						"name": "Ogród BUW (Dolny)"
					}
				},
				{
					"type": "Feature",
					"geometry": {
						"type": "Point",
						"coordinates": [
							20.999335,
							52.263797
						]
					},
					"properties": {
						"id": "park-fosa",
						"name": "Park Fosa"
					}
				},
				{
					"type": "Feature",
					"geometry": {
						"type": "Point",
						"coordinates": [
							20.986803,
							52.282704
						]
					},
					"properties": {
						"id": "kepa-potocka",
						"name": "Kępa Potocka"
					}
				},
				{
					"type": "Feature",
					"geometry": {
						"type": "Point",
						"coordinates": [
							20.941314,
							52.249456
						]
					},
					"properties": {
						"id": "park-im-ksiecia-janusza",
						"name": "Park im. Księcia Janusza"
					}
				},
				{
					"type": "Feature",
					"geometry": {
						"type": "Point",
						"coordinates": [
							20.951872,
							52.241362
						]
					},